dianping_id,dianping_url,name,category,photo_url,rating_flavor,rating_environ,rating_service,address,price_per_person,phone_number,lat,lng
75099257,http://www.dianping.com/shop/75099257,吃闹热火锅串串(蓝光coco店),火锅,https://img.meituan.net/msmerchant/934576f98b658a82338e4969a17e2402162520.png%40240w_180h_1e_1c_1l%7Cwatermark%3D1%26%26r%3D1%26p%3D9%26x%3D2%26y%3D2%26relative%3D1%26o%3D20,8.9,9.1,8.7,二环路东一段蓝光·COCO时代8栋附5号,58,028-84735908,30.68309751335235,104.10173578341784
97104622,http://www.dianping.com/shop/97104622,藕然轩,火锅,http://p1.meituan.net/mogu/7664299156a2b8c0c84b4f582fd17abf44716.jpg%40240w_180h_1e_1c_1l%7Cwatermark%3D1%26%26r%3D1%26p%3D9%26x%3D2%26y%3D2%26relative%3D1%26o%3D20,7.3,7.3,7.3,双桥路20号,N/A,13330831545,30.652317871097615,104.1041005036007
95319065,http://www.dianping.com/shop/95319065,小龙坎老火锅(成渝概念店),火锅,http://qcloud.dpfile.com/pc/90yoQEGyi5MCVdMqn4jO4op0EpDgrZcfQMy0qBqrFAs0xRcoWiXXk68eua3k51Og52lfszCzH6kCpIe1c2_41Q.jpg,7.8,7.8,7.8,洪河和韵路上实海上海北苑,N/A,028-86929297,30.6302230098319,104.15731523490751
95267411,http://www.dianping.com/shop/95267411,一把骨(建设路店),火锅,https://img.meituan.net/msmerchant/54559053970ec9645045b66bed7d740c166624.png%40280w_212h_1e_1c_1l%7Cwatermark%3D0,7.3,7.2,6.7,建设路2号汇富大厦2楼(消防中心旁),51,028-62608985,30.672386202549067,104.10840274616338
91020923,http://www.dianping.com/shop/91020923,裕龙斑鱼庄(动物园店),火锅,http://p1.meituan.net/mogu/da56fd70c7c1a11062c3249107ade6c974875.jpg%40240w_180h_1e_1c_1l%7Cwatermark%3D1%26%26r%3D1%26p%3D9%26x%3D2%26y%3D2%26relative%3D1%26o%3D20,7.6,7.5,7.7,东紫街499号附109号(金科一城),80,028-84478448,30.714093861133655,104.10679531795736
27150488,http://www.dianping.com/shop/27150488,皇味黄牛肉生态汤锅(建设北路店),火锅,https://img.meituan.net/msmerchant/445a7209a0f4b26cb4e96cb89bf2fead3176540.jpg%40280w_212h_1e_1c_1l%7Cwatermark%3D0,8,7.8,7.7,建设北路三段221号,69,028-83507612,30.680605827329398,104.11518104623113
20888478,http://www.dianping.com/shop/20888478,青柠记忆【青柠花园】泰式火锅(龙湖三千集店),火锅,http://p0.meituan.net/apiback/0510955c3d7dd6a2e538d97acd6280c32077282.jpg%40240w_180h_1e_1c_1l%7Cwatermark%3D1%26%26r%3D1%26p%3D9%26x%3D2%26y%3D2%26relative%3D1%26o%3D20,8.3,8.5,8.2,建设北路三段6号龙湖三千集4层,95,028-84440186,30.67717902905876,104.10676301217893
21632960,http://www.dianping.com/shop/21632960,一把骨(万科魅力店),火锅,https://img.meituan.net/msmerchant/addadb126a7ace40d301bc96b51d655e815473.jpg%40280w_212h_1e_1c_1l%7Cwatermark%3D0,7.6,7.7,7.4,万科路2号魅力新天地1栋204室(万科凯德广场斜对面),58,028-85950861,30.628794985554038,104.15196964792783
67837861,http://www.dianping.com/shop/67837861,原牛道牛肉火锅(电视塔店),火锅,https://img.meituan.net/msmerchant/cd3b3cca29be85b6e23e544fcabb244331667.jpg%40280w_212h_1e_1c_1l%7Cwatermark%3D0,8.9,9.2,9.1,猛追湾滨河路94号339购物中心临河1楼(靠近太平洋咖啡),98,028-85009757,30.665445785643275,104.0931378099534
91963582,http://www.dianping.com/shop/91963582,小龙坎老火锅(339电视塔店),火锅,https://img.meituan.net/msmerchant/bb9a1f3f7d4a16064a14bb428875f11e879917.jpg%40280w_212h_1e_1c_1l%7Cwatermark%3D0,7.4,7.9,7.2,双林路339号电视塔一楼(339officeA座),75,028-61387999,30.66384671870938,104.09158949494258
19486762,http://www.dianping.com/shop/19486762,重庆当年老火锅,火锅,http://p0.meituan.net/deal/d10672cc03fbbe2117b992e44641c06790636.jpg%40240w_180h_1e_1c_1l%7Cwatermark%3D1%26%26r%3D1%26p%3D9%26x%3D2%26y%3D2%26relative%3D1%26o%3D20,9,9,8.8,万科魅力之城万科路199号(益民菜市旁，海上海楼盘对面),74,028-83297077,30.6275334405471,104.15529566943889
5426959,http://www.dianping.com/shop/5426959,鸿顺吉-稀溜耙鸡爪(双林店),火锅,http://p1.meituan.net/dpmerchantalbum/29f6e54cfdb2b5d2d5bbc801b5f6ca2a161229.jpg%40240w_180h_1e_1c_1l%7Cwatermark%3D1%26%26r%3D1%26p%3D9%26x%3D2%26y%3D2%26relative%3D1%26o%3D20,8.2,7.6,8.1,双林北支路226号(新华公园后门),65,028-81133865,30.659688722471586,104.10078781859718
95389354,http://www.dianping.com/shop/95389354,皮皮兔火锅(总店),火锅,https://img.meituan.net/msmerchant/314a447cc12b44f3bfe1de088489ba3a1206338.jpg%40280w_212h_1e_1c_1l%7Cwatermark%3D0,8.4,7.7,8.5,建设西街3号附附17号,57,028-84298509,30.668837634815496,104.10850100224965
23300695,http://www.dianping.com/shop/23300695,销魂掌(八里概念店),火锅,https://img.meituan.net/msmerchant/560a1b936395f4317c6f3dce4133ed7a467653.jpg%40280w_212h_1e_1c_1l%7Cwatermark%3D0,8.5,8.8,8.3,八里小区双建路102号(华西中学旁),64,028-84128606,30.68360649975292,104.11106046267467
66570135,http://www.dianping.com/shop/66570135,牛契潮汕牛肉火锅,火锅,http://p0.meituan.net/merchantpic/cdfe5966d601f960c109d7140bdb943970413.jpg%40240w_180h_1e_1c_1l%7Cwatermark%3D1%26%26r%3D1%26p%3D9%26x%3D2%26y%3D2%26relative%3D1%26o%3D20,7.7,8.3,7.9,荆翠西路2号金科中心9栋3层301号(川陕立交内侧),103,028-83555707,30.71933044424464,104.1015610982105
69281944,http://www.dianping.com/shop/69281944,钢管厂五区小郡肝串串香(天祥寺店),串串香,https://img.meituan.net/msmerchant/bb873fee1fb179986f0deb1d14bb2ea943826.png%40280w_212h_1e_1c_1l%7Cwatermark%3D0,9.1,9,8.9,天祥街18号,65,028-84303110,30.65970897846433,104.08961064452572
93517547,http://www.dianping.com/shop/93517547,辣手燚鲜菜老火锅,火锅,http://p0.meituan.net/mogu/773028219a67a04336ada22866ec84ac66221.jpg%40240w_180h_1e_1c_1l%7Cwatermark%3D1%26%26r%3D1%26p%3D9%26x%3D2%26y%3D2%26relative%3D1%26o%3D20,8.9,8.7,8.6,欣然二街29号,65,17318688517,30.688974082367356,104.10266659844346
4207721,http://www.dianping.com/shop/4207721,迷尚澳门豆捞(建设路店),火锅,http://p0.meituan.net/mogu/1763ed07331f3f608a1d0b1a65248eae66145.jpg%40240w_180h_1e_1c_1l%7Cwatermark%3D1%26%26r%3D1%26p%3D9%26x%3D2%26y%3D2%26relative%3D1%26o%3D20,7.8,7.6,7.7,建设路2号国光大厦附楼3-4楼(近伊藤洋华堂),118,028-84326110,30.673074315630537,104.10550685101803
76977917,http://www.dianping.com/shop/76977917,鼎火老火锅,火锅,http://p0.meituan.net/dpmerchantalbum/9e805f307dae161411015240fa49095256387.jpg%40240w_180h_1e_1c_1l%7Cwatermark%3D1%26%26r%3D1%26p%3D9%26x%3D2%26y%3D2%26relative%3D1%26o%3D20,8.6,7.9,8.8,水碾河北二街27号,67,13881892462,30.65258824687948,104.09638451401779
95971397,http://www.dianping.com/shop/95971397,醉巴适重庆朝天门火锅,火锅,https://img.meituan.net/msmerchant/b4d96ea5753445501d11689af87fecf4141656.jpg%40280w_212h_1e_1c_1l%7Cwatermark%3D0,9,9.1,9,和美东路177号附15号2楼,71,028-83511601,30.630631106186037,104.15358744701611
73592634,http://www.dianping.com/shop/73592634,码头故事(龙潭店),火锅,http://p0.meituan.net/dpmerchantalbum/8387fdf913281e21291992c6fad872ce362637.jpg%40240w_180h_1e_1c_1l%7Cwatermark%3D1%26%26r%3D1%26p%3D9%26x%3D2%26y%3D2%26relative%3D1%26o%3D20,7.7,7.9,7.4,华泰路1号望子成龙学校楼下,68,028-84202977,30.701341373216064,104.16417179215695
74518818,http://www.dianping.com/shop/74518818,巴色鱼捞(建设路店),火锅,http://p1.meituan.net/dpmerchantalbum/e0c85fb66484d238dfd23760188cd91257958.jpeg%40240w_180h_1e_1c_1l%7Cwatermark%3D1%26%26r%3D1%26p%3D9%26x%3D2%26y%3D2%26relative%3D1%26o%3D20,7.3,7.8,7.4,建设路龙湖三千集4楼,87,028-83532249,30.677394083697227,104.10708210298
21201590,http://www.dianping.com/shop/21201590,小龙坎老火锅(双林店),火锅,https://img.meituan.net/msmerchant/a281c91c6f90315fdb14075a6ea1bfcf468315.jpg%40280w_212h_1e_1c_1l%7Cwatermark%3D0,8.6,8.5,8.4,双林北横路109号附8号,81,028-83282532,30.655127580041203,104.10839259246252
96275763,http://www.dianping.com/shop/96275763,三道苗苗鱼火锅(神雕侠侣八里店),火锅,https://img.meituan.net/msmerchant/5847f15d932779877f4ca1405fe417eb451448.jpg%40280w_212h_1e_1c_1l%7Cwatermark%3D0,9.2,9.1,9,八里小区双建路111-113号桃蹊路派出所对面,67,13219073555,30.683522312380113,104.11181992019155
66958504,http://www.dianping.com/shop/66958504,掂档潮汕牛肉火锅(万象城店),火锅,http://p1.meituan.net/msmerchant/a58c6881a054a4a7c29fe780f874f228379083.jpg%40280w_212h_1e_1c_1l%7Cwatermark%3D0,7.7,7.8,7.9,双庆路8号华润万象城商场A区5层,104,028-87321286,30.65166774601419,104.11271182593488
97131060,http://www.dianping.com/shop/97131060,皇记仔姜鲜锅兔(万年场店),火锅,http://p1.meituan.net/mogu/c99fb72c11260fd2f376897559f25fa950677.jpg%40240w_180h_1e_1c_1l%7Cwatermark%3D1%26%26r%3D1%26p%3D9%26x%3D2%26y%3D2%26relative%3D1%26o%3D20,7.8,7.3,7.7,双成三路15号附62(华润二十四城锦云府一楼),N/A,028-83522399,30.64645378885317,104.11383974303118
97040848,http://www.dianping.com/shop/97040848,轩货鱼捞(海上海店),火锅,https://img.meituan.net/msmerchant/3644f0f1590c1f16fe9e92cce513d08673915.jpg%40280w_212h_1e_1c_1l%7Cwatermark%3D0,8.5,8.5,8.7,和韵路334号(海上海北苑底商),60,028-83128789,30.63013451949951,104.15702670940576
21383918,http://www.dianping.com/shop/21383918,重庆渝宗燚老火锅(建设路店),火锅,http://p1.meituan.net/apiback/fdc1edd3bd6780dbc64686ed4689a60156178.jpg%40240w_180h_1e_1c_1l%7Cwatermark%3D1%26%26r%3D1%26p%3D9%26x%3D2%26y%3D2%26relative%3D1%26o%3D20,7.8,8.1,7.8,建设巷1号附16号(第五大道),74,028-68889559,30.672565039802784,104.10079322473096
22877672,http://www.dianping.com/shop/22877672,妙厨老爹泉水蒸汽石锅鱼(sm广场店),火锅,http://qcloud.dpfile.com/pc/RARb54BA0eQTZnZCdGAl9NNyif0_smypldeZQRsFvCwchVTUwgs16tFR7U48rkUt52lfszCzH6kCpIe1c2_41Q.jpg,8.1,8.1,8.3,二环路东二段29号sm广场B1层,65,028-84368563,30.67009910840208,104.11030071597867
92428864,http://www.dianping.com/shop/92428864,大龙火锅(驷马桥店),火锅,http://p1.meituan.net/deal/4885c6b56f98b3fce125d64e076c9ad441296.jpg%40240w_180h_1e_1c_1l%7Cwatermark%3D1%26%26r%3D1%26p%3D9%26x%3D2%26y%3D2%26relative%3D1%26o%3D20,7.4,8.1,7.7,中环路双荆路段6号附23号,77,028-61295386,30.7114565591926,104.09391542449771
6211396,http://www.dianping.com/shop/6211396,自贡芭夯兔(建设路店),其他,http://p1.meituan.net/mogu/64ff37a712d49ad7d7dceb4bae5a887d3795679.png%40240w_180h_1e_1c_1l%7Cwatermark%3D1%26%26r%3D1%26p%3D9%26x%3D2%26y%3D2%26relative%3D1%26o%3D20,8.1,8.1,8.1,一环路东一段13号,71,028-81451768,30.67140307070321,104.09753745736188
8854588,http://www.dianping.com/shop/8854588,重庆老外婆耗儿鱼,火锅,http://p1.meituan.net/deal/__30772236__1624183.jpg%40240w_180h_1e_1c_1l%7Cwatermark%3D1%26%26r%3D1%26p%3D9%26x%3D2%26y%3D2%26relative%3D1%26o%3D20,8,7.7,7.6,望平街香香巷1-5号(近东风大桥),80,028-61301071,30.656361171513296,104.08732015883838
22144166,http://www.dianping.com/shop/22144166,鸿社重庆老火锅,火锅,http://qcloud.dpfile.com/pc/yK20p-ogEJ5Il2YPs5nRA4dYkqpSX-VbHsdSlpxnfe8e2PniMAJK4tejDqonl8XN52lfszCzH6kCpIe1c2_41Q.jpg,8.4,6.6,7.1,建设南一路菽香里一巷36号,77,13618063002,30.666627921871406,104.1018045483524
93465671,http://www.dianping.com/shop/93465671,安安泡菜汤锅,火锅,https://img.meituan.net/msmerchant/5647d844a2918b8c60acf9bfea661355899533.jpg%40280w_212h_1e_1c_1l%7Cwatermark%3D0,8.2,9.1,8.8,建设路建设巷1号附20号(电子科大万人公寓正门右侧),70,028-86612065,30.67321770722258,104.10060419082406
528635,http://www.dianping.com/shop/528635,宋二姐土鸡火锅(新华公园总店),火锅,https://img.meituan.net/msmerchant/99f9ef5ced644a29c5d886f080a1800b3046307.jpg%40280w_212h_1e_1c_1l%7Cwatermark%3D0,7.5,7.6,7.9,新华公园(近双林北支路),66,028-84318409,30.659278795747706,104.10028283139921
66928412,http://www.dianping.com/shop/66928412,無贰重庆老火锅,火锅,http://p0.meituan.net/ugcpic/b68f3c55635ad9dfe5fd5606053fa884%40240w_180h_1e_1c_1l%7Cwatermark%3D1%26%26r%3D1%26p%3D9%26x%3D2%26y%3D2%26relative%3D1%26o%3D20,8.7,7.5,8.5,新鸿北支路10号(红光路制药五厂宿舍内),81,15682074527,30.666021189426097,104.10714864912075
76943288,http://www.dianping.com/shop/76943288,象素林泰式海鲜火锅,东南亚菜,https://img.meituan.net/msmerchant/2e3c47d012a8c1f1970d60bc7d9b4b5d1500263.png%40280w_212h_1e_1c_1l%7Cwatermark%3D0,8,8.9,8.9,玉双路7号附3号玉台大厦三楼,93,028-83255310,30.658739078416627,104.0909490189311
69222565,http://www.dianping.com/shop/69222565,佐冷馋·串串里(339购物中心店),火锅,https://img.meituan.net/msmerchant/6ee4931722fdccd3b24c4b81eb16d7b1158749.jpg%40240w_180h_1e_1c_1l%7Cwatermark%3D1%26%26r%3D1%26p%3D9%26x%3D2%26y%3D2%26relative%3D1%26o%3D20,8.4,8.9,8.3,猛追湾滨河路94号339购物中心临河1楼(近太平洋咖啡),66,028-84788339,30.66387887195878,104.09075687253697
2622346,http://www.dianping.com/shop/2622346,巴蜀大宅门火锅(新华公园店),火锅,http://p1.meituan.net/msmerchant/3dec16e6e2f9eea4fc0575118e6d46141911558.png%40240w_180h_1e_1c_1l%7Cwatermark%3D1%26%26r%3D1%26p%3D9%26x%3D2%26y%3D2%26relative%3D1%26o%3D20,8.6,8.1,8.5,新鸿南路75号(近新华公园后门),79,028-84346222,30.661357824429885,104.1037360231049
76411708,http://www.dianping.com/shop/76411708,花甜潮汕牛肉火锅,火锅,http://p1.meituan.net/deal/c000878c3048fe00b9d6cd238d22c7d166784.jpg%40240w_180h_1e_1c_1l%7Cwatermark%3D1%26%26r%3D1%26p%3D9%26x%3D2%26y%3D2%26relative%3D1%26o%3D20,7.9,8.5,8.2,和锦路284号,97,028-89895677,30.630860652233938,104.15331484950791
4599111,http://www.dianping.com/shop/4599111,大嘴霸王排骨(建设直营店),火锅,https://img.meituan.net/msmerchant/8a57a009005581f8c46eb749f30f11544614536.jpg%40280w_212h_1e_1c_1l%7Cwatermark%3D0,8,8.3,7.6,建设路26号第五大道2楼(电子科技大学润新公寓对面),68,028-84347711,30.67198327443501,104.10067724904326
22348123,http://www.dianping.com/shop/22348123,渝味晓宇火锅(新鸿路店),火锅,http://qcloud.dpfile.com/pc/WpCDz6vkbyVp_09dx2sAK5dkao-2loRRzbQhE53lC7Z2F-VzCNjLfY5u7XyqSX7SxwcW-IIQfiNkbGBWOSHBFQ.jpg,8.3,8.5,8.3,新鸿南路187号,81,028-84335678,30.663714823298477,104.10382893003973
93084476,http://www.dianping.com/shop/93084476,小龙坎老火锅(SM广场店),火锅,https://img.meituan.net/msmerchant/bf68347c017fb5e8321d03cf8dcd4682567128.jpg%40280w_212h_1e_1c_1l%7Cwatermark%3D0,8.5,8.9,8.6,建设路2号汇富大厦2楼,73,028-61530218,30.672541228300883,104.10894400787663
92445804,http://www.dianping.com/shop/92445804,红瓦房火锅(双桥路店),火锅,https://img.meituan.net/msmerchant/a9f6bae8d74361169ac324f01cc9b988240359.jpg%40280w_212h_1e_1c_1l%7Cwatermark%3D0,8.3,8.8,8.4,双桥路与经华北路交口福兴商厦2楼,55,028-84339332,30.650985204493917,104.10601200165297
92183496,http://www.dianping.com/shop/92183496,雷公椒火锅,火锅,http://p1.meituan.net/mogu/e57aca3573e21725b61361f5ebf688ab40156.jpg%40240w_180h_1e_1c_1l%7Cwatermark%3D1%26%26r%3D1%26p%3D9%26x%3D2%26y%3D2%26relative%3D1%26o%3D20,8.3,8.5,7.9,小龙桥路100号,56,028-69283407,30.661942453104153,104.10808416234514
69764408,http://www.dianping.com/shop/69764408,六月雪欢乐干锅(339购物中心店),火锅,http://p1.meituan.net/msmerchant/45344bdd69f71c774662a56086641c7b54761.png%40240w_180h_1e_1c_1l%7Cwatermark%3D1%26%26r%3D1%26p%3D9%26x%3D2%26y%3D2%26relative%3D1%26o%3D20,7.3,7.8,7.5,猛追湾街94号339购物中心1层,59,028-62501078,30.664219494709975,104.09193333150202
69642162,http://www.dianping.com/shop/69642162,红社老味火锅,火锅,http://p1.meituan.net/deal/1a9a4f7167a9a61385ef29571e95a6c5131016.jpg%40240w_180h_1e_1c_1l%7Cwatermark%3D1%26%26r%3D1%26p%3D9%26x%3D2%26y%3D2%26relative%3D1%26o%3D20,8.3,7.3,7.7,双林中横路14号,50,028-83510957,30.654196018819253,104.10644697692226
5137807,http://www.dianping.com/shop/5137807,王记六合鱼,火锅,http://p1.meituan.net/deal/4337020c93c3ba262b1a13c1621c1e4f87150.jpg%40240w_180h_1e_1c_1l%7Cwatermark%3D1%26%26r%3D1%26p%3D9%26x%3D2%26y%3D2%26relative%3D1%26o%3D20,7.8,8.2,7.6,双林路45号妈妈传炖品旁,72,028-83270639,30.656104155381993,104.10636086386205
95915494,http://www.dianping.com/shop/95915494,火馬经典本味火锅,火锅,https://img.meituan.net/msmerchant/ea7f8e25ced5c98aeb0e007ef91e0c9c1154071.jpg%40280w_212h_1e_1c_1l%7Cwatermark%3D0,8.1,8.8,8.5,双成三路15号-244万象润街2楼,72,028-83258798,30.64666594320966,104.1154417886211
95062103,http://www.dianping.com/shop/95062103,烫火锅,火锅,https://img.meituan.net/msmerchant/3ef232c9f9fc022d095193e4b2b55e2a632735.jpg%40280w_212h_1e_1c_1l%7Cwatermark%3D0,8.2,7.9,8.3,成都水碾河北二街13幢5单元2号,61,18628183780,30.65224582096966,104.0967549945802
96636685,http://www.dianping.com/shop/96636685,川倒拐耗儿鱼(339购物中心店),火锅,https://img.meituan.net/msmerchant/a31a0a4ca848c4643e1e0e0201c43de181378.png%40280w_212h_1e_1c_1l%7Cwatermark%3D0,7.5,7.7,7.3,电视塔339美食街内(近猛追湾滨河路与双林路交叉口),N/A,028-83319177,30.663571022033164,104.09068991875147
90354892,http://www.dianping.com/shop/90354892,钢管厂五区小郡肝串串香(驷马桥店),火锅,http://p0.meituan.net/dpmerchantalbum/0943b010a6b328e23764cde8224a057a440608.png%40240w_180h_1e_1c_1l%7Cwatermark%3D1%26%26r%3D1%26p%3D9%26x%3D2%26y%3D2%26relative%3D1%26o%3D20,8.4,7.9,7.8,洪山路28号附8-9号,69,028-84712503,30.709875174274515,104.08922453988706
5466352,http://www.dianping.com/shop/5466352,金麒麟兔火锅,火锅,http://qcloud.dpfile.com/pc/O1pjK1-h5DfD4woAv5_UmHggMm2VgEDi-s8W-pOxjPATjrStG4uO_FV9GT2BP8BL52lfszCzH6kCpIe1c2_41Q.jpg,8.2,6,6.4,猛追湾东路5号(近猛追湾游泳池),58,13648033088,30.667853586607798,104.0964278016614
65751358,http://www.dianping.com/shop/65751358,镇江龙麻辣烫·始于1976(东郊店),串串香,http://p0.meituan.net/dpmerchantalbum/4ed96b23686bc998f978c42290ea17d5397143.jpg%40240w_180h_1e_1c_1l%7Cwatermark%3D1%26%26r%3D1%26p%3D9%26x%3D2%26y%3D2%26relative%3D1%26o%3D20,8,8.4,8.3,枫林路142号,57,028-83281976,30.675197875560517,104.12325813210295
96295858,http://www.dianping.com/shop/96295858,保山蟹(华润店),火锅,https://img.meituan.net/msmerchant/6b26a1c352d67a4d4435d2f5f87ec89e644932.jpg%40280w_212h_1e_1c_1l%7Cwatermark%3D0,7.5,7.5,7.6,双成三路15号-199小龙坎火锅店隔壁,N/A,18280021997,30.647030487467124,104.11506551417402
92998983,http://www.dianping.com/shop/92998983,贰条火锅馆,火锅,http://p0.meituan.net/mogu/0011bc2de703bbf13290b83758a1401955847.jpg%40240w_180h_1e_1c_1l%7Cwatermark%3D1%26%26r%3D1%26p%3D9%26x%3D2%26y%3D2%26relative%3D1%26o%3D20,8.2,8.6,8.6,玉双路1号附4号,80,028-83152527,30.65723724933282,104.09476567665764
67064333,http://www.dianping.com/shop/67064333,海盗欢乐鱼捞(李家沱店),火锅,http://p1.meituan.net/mogu/54743e6fc07cb89d3362b88a553b3bf8162608.png%40240w_180h_1e_1c_1l%7Cwatermark%3D1%26%26r%3D1%26p%3D9%26x%3D2%26y%3D2%26relative%3D1%26o%3D20,8.3,8.4,8.4,泰兴路36-附5号,80,028-84733768,30.687938999080487,104.09101664037439
5927738,http://www.dianping.com/shop/5927738,千味涮(万象城店),火锅,http://p0.meituan.net/mogu/ba9a638de46fc0696f5c68bb17b1210f106733.jpg%40240w_180h_1e_1c_1l%7Cwatermark%3D1%26%26r%3D1%26p%3D9%26x%3D2%26y%3D2%26relative%3D1%26o%3D20,7.3,7.5,7.2,双庆路8号华润万象城商场B区5层522号,75,028-61539488,30.651516758143558,104.11271190956326
91001708,http://www.dianping.com/shop/91001708,简阳正宗羊肉汤,火锅,https://img.meituan.net/msmerchant/8ca1a99179b40ec481793383dbcc7bc1122991.jpg%40280w_212h_1e_1c_1l%7Cwatermark%3D0,7.9,7.6,7.5,猛追湾街123号(反时针隔壁),79,028-84119418,30.666601129636884,104.0956490227699
21688817,http://www.dianping.com/shop/21688817,倒拐香耗儿鱼(府青店),火锅,http://p1.meituan.net/deal/__49475788__5445729.jpg%40240w_180h_1e_1c_1l%7Cwatermark%3D1%26%26r%3D1%26p%3D9%26x%3D2%26y%3D2%26relative%3D1%26o%3D20,7.6,7.6,7.3,二环路东一段16号(蓝光coco4-1-20),91,028-84735118,30.68350039330349,104.10197578308356
95874535,http://www.dianping.com/shop/95874535,小龙坎老火锅,火锅,https://img.meituan.net/msmerchant/e4db1fb3f925bccfc760641b2d7402f42767254.jpg%40280w_212h_1e_1c_1l%7Cwatermark%3D0,7.6,8,7.6,建设路第五大道三楼,78,028-85532882,30.671747647005027,104.09991234345863
23960356,http://www.dianping.com/shop/23960356,味之绝美蛙鱼头(龙潭店),火锅,http://p1.meituan.net/apiback/c930a8023f9386183fd4df859642d46b123110.jpg%40240w_180h_1e_1c_1l%7Cwatermark%3D1%26%26r%3D1%26p%3D9%26x%3D2%26y%3D2%26relative%3D1%26o%3D20,8.5,7.5,7.9,龙潭寺华彩路21号附25号,63,028-69768323,30.69681112739233,104.17301371394473
91976125,http://www.dianping.com/shop/91976125,蜀皇全牛宴菌汤鲜黄牛肉(龙潭寺店),火锅,http://p1.meituan.net/deal/e1c337508fa2b3e224e96f67994926b927798.jpg%40240w_180h_1e_1c_1l%7Cwatermark%3D1%26%26r%3D1%26p%3D9%26x%3D2%26y%3D2%26relative%3D1%26o%3D20,7.6,7.4,7.2,华泰路6号,N/A,028-84201345,30.698841146475125,104.16395850355958
96183887,http://www.dianping.com/shop/96183887,小龙坎老火锅(金马河店),火锅,http://qcloud.dpfile.com/pc/H0RhG6BjZTrGQeNvrfIEiHrAOaSacYTbDbBhT58o_U1q1H2uL8f5QjdhgC7X-Y3f52lfszCzH6kCpIe1c2_41Q.jpg,7.4,7.4,7.3,金马河路8号附24号,51,15884597843,30.634948585685382,104.14503549783329
92611760,http://www.dianping.com/shop/92611760,小龙坎老火锅,火锅,http://p0.meituan.net/deal/04902d8ded911e928158e562b06bb22d92276.jpg%40240w_180h_1e_1c_1l%7Cwatermark%3D1%26%26r%3D1%26p%3D9%26x%3D2%26y%3D2%26relative%3D1%26o%3D20,7.3,7.3,7.1,建业路26号附4号,77,028-61101886,30.67100068820509,104.11183344620629
2181334,http://www.dianping.com/shop/2181334,妈妈传炖品(双林店),小吃快餐,http://p1.meituan.net/deal/7ff78d28778f7246c560178b75804da4399317.jpg%40240w_180h_1e_1c_1l%7Cwatermark%3D1%26%26r%3D1%26p%3D9%26x%3D2%26y%3D2%26relative%3D1%26o%3D20,7.7,7.6,7.5,双林路45号,48,028-84383977,30.655843314604077,104.10646290567021
67141090,http://www.dianping.com/shop/67141090,玖道门重庆火锅,火锅,http://p1.meituan.net/dpmerchantalbum/37b605fcabbd004146d20796198e8125103555.jpeg%40240w_180h_1e_1c_1l%7Cwatermark%3D1%26%26r%3D1%26p%3D9%26x%3D2%26y%3D2%26relative%3D1%26o%3D20,8.9,7.7,8.5,建设中路15号(国光九街坊18号楼底商),64,15023268773,30.672819467296186,104.09787134964128
58001507,http://www.dianping.com/shop/58001507,吴铭怀旧火锅(双建路店),火锅,http://p1.meituan.net/deal/8bce6524964c6c1dbcf6296c4b379a3c103954.jpg%40240w_180h_1e_1c_1l%7Cwatermark%3D1%26%26r%3D1%26p%3D9%26x%3D2%26y%3D2%26relative%3D1%26o%3D20,7.6,8.2,7.9,八里小区双建路1号(建设北路三段口),64,028-83266738,30.680594631633443,104.11361703214563
74599898,http://www.dianping.com/shop/74599898,巴蜀川西坝子火锅(动物园店),火锅,https://img.meituan.net/msmerchant/e2fdbd18f547cc485ff8fe47123063a21573376.jpg%40280w_212h_1e_1c_1l%7Cwatermark%3D0,7.4,8.1,7.5,昭觉寺南路280号(地铁动物园B口),88,028-83293846,30.715991152755272,104.10193527910879
24760959,http://www.dianping.com/shop/24760959,天星正源火锅,火锅,http://p0.meituan.net/merchantpic/2d0a56497fa1a5e71fcc6e74325c3f6127400.jpg%40240w_180h_1e_1c_1l%7Cwatermark%3D1%26%26r%3D1%26p%3D9%26x%3D2%26y%3D2%26relative%3D1%26o%3D20,8.4,6.7,7.2,圣灯路62号附5,76,13550388822,30.67590284856965,104.12064560530155
66139566,http://www.dianping.com/shop/66139566,逸品汤锅王清汤鲜黄牛肉,火锅,http://p0.meituan.net/deal/9a3514953c44d4c9a278f1e5a80df60c74024.jpg%40240w_180h_1e_1c_1l%7Cwatermark%3D1%26%26r%3D1%26p%3D9%26x%3D2%26y%3D2%26relative%3D1%26o%3D20,7.6,7.5,7.5,一环路东二段18号(新鸿路口宏明商厦1楼),56,028-64860199,30.66485220587441,104.09945659115697
67692903,http://www.dianping.com/shop/67692903,大龙火锅(成都店),火锅,http://p1.meituan.net/msmerchant/b21cf631ac1b7e0a1a8093923c1859e1167900.jpeg%40240w_180h_1e_1c_1l%7Cwatermark%3D1%26%26r%3D1%26p%3D9%26x%3D2%26y%3D2%26relative%3D1%26o%3D20,8.2,7.3,7.6,双林北横路117号(高逸酒店),73,028-83533846,30.655881036946823,104.10797940334065
58001507,http://www.dianping.com/shop/58001507,吴铭怀旧火锅(双建路店),火锅,http://p1.meituan.net/deal/8bce6524964c6c1dbcf6296c4b379a3c103954.jpg%40240w_180h_1e_1c_1l%7Cwatermark%3D1%26%26r%3D1%26p%3D9%26x%3D2%26y%3D2%26relative%3D1%26o%3D20,7.6,8.2,7.9,八里小区双建路1号(建设北路三段口),64,028-83266738,30.680594631633443,104.11361703214563
69425977,http://www.dianping.com/shop/69425977,重庆孔亮老火锅(建设南路店),火锅,http://p1.meituan.net/mogu/f99bf1a47ab0629a6f0ee073bb582a6f147451.jpg%40240w_180h_1e_1c_1l%7Cwatermark%3D1%26%26r%3D1%26p%3D9%26x%3D2%26y%3D2%26relative%3D1%26o%3D20,7.8,8.4,7.9,建设南路163号(红枫岭小区三期正大门对面),70,028-61308989,30.673385939845723,104.12349044979436
73601322,http://www.dianping.com/shop/73601322,徐记君味老火锅,火锅,http://p0.meituan.net/dpmerchantalbum/b840f68f7fe9d84c667d1ca3374b5f4e28769.jpeg%40240w_180h_1e_1c_1l%7Cwatermark%3D1%26%26r%3D1%26p%3D9%26x%3D2%26y%3D2%26relative%3D1%26o%3D20,8.8,7.9,8.6,双林中横路51号1幢(双林一区进门50米),76,13808033340,30.652820987610617,104.10724528937591
19663738,http://www.dianping.com/shop/19663738,青年火锅(新华店),火锅,https://img.meituan.net/msmerchant/bc8b4b868b3040d3225940e41b76a903303410.jpg%40280w_212h_1e_1c_1l%7Cwatermark%3D0,8.6,7.3,8,小龙桥路67号中海新华府5栋2楼1号(5栋2楼一号),67,028-64869107,30.660887082840016,104.10840233072838
18996181,http://www.dianping.com/shop/18996181,醉城都火锅(初入江湖店),火锅,https://img.meituan.net/msmerchant/537b720e0aaef857b8279cdc80cecd8a199466.jpg%40280w_212h_1e_1c_1l%7Cwatermark%3D0,8,8.1,7.7,万科北街19号(摩玛新城正大门旁),75,028-66555500,30.631153261948203,104.15267178718726
90912657,http://www.dianping.com/shop/90912657,川麻·九宫格老火锅,火锅,https://img.meituan.net/msmerchant/229ebbb1fda48dd5f235561fba2465ca657063.jpg%40280w_212h_1e_1c_1l%7Cwatermark%3D0,7.6,7.7,7.7,望平街70号附1号,66,028-83357875,30.65690114275718,104.08804121763913
95953504,http://www.dianping.com/shop/95953504,蜀一香·汤锅汇(建设路店),火锅,https://img.meituan.net/msmerchant/503f456b69a8c740573320d242b444f3417687.png%40280w_212h_1e_1c_1l%7Cwatermark%3D0,7.1,7.5,7.2,建设南新路61号1-2层,56,15982385191,30.66715571588052,104.10309940398574
96401595,http://www.dianping.com/shop/96401595,鼎味美蛙鱼头,火锅,https://img.meituan.net/msmerchant/3574eb2593869436899ac7a29f0fee31147156.jpg%40280w_212h_1e_1c_1l%7Cwatermark%3D0,7.5,7.3,7.7,双成三路15号附56(万象城华润润街店),N/A,028-83504318,30.64657373793464,104.11383973750551
3089218,http://www.dianping.com/shop/3089218,陈记泸州酸菜豆花火锅(建设路店),火锅,http://p0.meituan.net/deal/24975c49c879997c75c0ed95312a894c122218.jpg%40240w_180h_1e_1c_1l%7Cwatermark%3D1%26%26r%3D1%26p%3D9%26x%3D2%26y%3D2%26relative%3D1%26o%3D20,7.3,6.3,6.9,建设路(近电子科大),31,028-84463282,30.6716411682677,104.0992762860505
96015673,http://www.dianping.com/shop/96015673,逗蛙(SM广场店),火锅,http://p1.meituan.net/mogu/3fa28b16372f214dc53773680b7f7b8d31550.jpg%40240w_180h_1e_1c_1l%7Cwatermark%3D1%26%26r%3D1%26p%3D9%26x%3D2%26y%3D2%26relative%3D1%26o%3D20,7.2,7.4,7.1,sm广场4楼北侧,68,18011231009,30.67180560424177,104.10902907669585
96022207,http://www.dianping.com/shop/96022207,肖醉仙羊肉汤,火锅,http://qcloud.dpfile.com/pc/VXQdxU-jAZUxCOgaf9Yc4z5j6ZFZQkkbe7kGWBv9NDmeUTpyRvj2azXvAQnE7eVv52lfszCzH6kCpIe1c2_41Q.jpg,7.4,7.4,7.4,府华二路68号3栋附4号(coco时代广场),N/A,17358627215,30.68421895817302,104.10156472033098
90508266,http://www.dianping.com/shop/90508266,龙晓影牙尖帮小郡肝串串香(双林店),串串香,https://img.meituan.net/msmerchant/b29024b80c80ca7f3de1a36a3323883b91665.jpg%40280w_212h_1e_1c_1l%7Cwatermark%3D0,8.9,9.1,9,一环路东三段133号成华区人民政府对面,58,028-84120977,30.66212047441349,104.09985870480762
95867038,http://www.dianping.com/shop/95867038,小龙坎老火锅(和美店),火锅,http://p0.meituan.net/mogu/74af16be658a6ecb8c9777c0a9eb962c98746.jpg%40240w_180h_1e_1c_1l%7Cwatermark%3D1%26%26r%3D1%26p%3D9%26x%3D2%26y%3D2%26relative%3D1%26o%3D20,6.7,7.3,6.7,迎晖公交站二楼,63,028-61296268,30.62942814172716,104.1527690388569
80546912,http://www.dianping.com/shop/80546912,钢管厂五区小郡肝串串香(动物园店),串串香,https://img.meituan.net/msmerchant/bb873fee1fb179986f0deb1d14bb2ea943826.png%40280w_212h_1e_1c_1l%7Cwatermark%3D0,9.1,9,8.8,昭觉寺南路280号熊猫生活广场1楼106号,54,028-83272089,30.716180890529564,104.10126222743773
24033835,http://www.dianping.com/shop/24033835,sm创鑫美国肥牛(sm广场店),火锅,http://qcloud.dpfile.com/pc/arE1huFtMRqZ47NaRz70pW6k73DuK_QI8uakgJ41HGLFiQxTaXLzdOMprdkUI1qp52lfszCzH6kCpIe1c2_41Q.jpg,8.4,8.8,8.6,二环路东二段29号sm广场4层,58,028-83218506,30.67077919053872,104.10925721923165
67145974,http://www.dianping.com/shop/67145974,钢管厂五区小郡肝串串香(总店),串串香,https://img.meituan.net/msmerchant/bb873fee1fb179986f0deb1d14bb2ea943826.png%40280w_212h_1e_1c_1l%7Cwatermark%3D0,9,7.8,7.7,双林北支路335号(新华公园),64,028-84737756,30.65965838983101,104.10320501999834
18228446,http://www.dianping.com/shop/18228446,千椒兔辣辣(建设路店),川菜,https://img.meituan.net/msmerchant/f78de40ceafc592acd5cd1b32d5b5b25167425.jpg%40280w_212h_1e_1c_1l%7Cwatermark%3D0,8,7.6,7.6,建设路街道建设路26号小区第五大道二楼附185号(高地中心对面),56,028-83158589,30.671500475767377,104.10061127017181
76993352,http://www.dianping.com/shop/76993352,余味·太极,火锅,http://p0.meituan.net/deal/d34c8f271444b19416648700d9d4c7e2120648.jpg%40240w_180h_1e_1c_1l%7Cwatermark%3D1%26%26r%3D1%26p%3D9%26x%3D2%26y%3D2%26relative%3D1%26o%3D20,7.4,7.8,7.8,建设路52号(成都太极商务宾馆1楼),90,84333983-8126,30.670984290804,104.09791842879324
93350838,http://www.dianping.com/shop/93350838,嘎嘎鸭脑壳(新华公园店),火锅,http://p1.meituan.net/mogu/1af0f524de0aff33025f1f5a1a1daa8423726.jpg%40240w_180h_1e_1c_1l%7Cwatermark%3D1%26%26r%3D1%26p%3D9%26x%3D2%26y%3D2%26relative%3D1%26o%3D20,8,8.2,7.4,新鸿南路11号,74,028-83267421,30.660448229836213,104.10375906889138
71007087,http://www.dianping.com/shop/71007087,汇蜀川西坝子(总店),火锅,https://img.meituan.net/msmerchant/5262e1f4f777cb64a0c4dedda692822e3096576.jpg%40280w_212h_1e_1c_1l%7Cwatermark%3D0,6.6,7.5,7,万科魅力城紫提东郡万宇路1号6栋2楼,81,028-65651111,30.62813053149725,104.15603298337805
21276815,http://www.dianping.com/shop/21276815,简阳羊肉汤锅,火锅,http://p1.meituan.net/merchantpic/3d0f444a73b92db4947d6e1738877900325127.jpg%40240w_180h_1e_1c_1l%7Cwatermark%3D1%26%26r%3D1%26p%3D9%26x%3D2%26y%3D2%26relative%3D1%26o%3D20,7.6,6.7,7.5,新鸿南路77号14栋（温馨保健幼儿园旁）新华公园后门万禾龙门火锅旁进小区第一个路口右转30米,55,13408676768,30.660663684247314,104.10522135403237
92467309,http://www.dianping.com/shop/92467309,钢钢好小郡肝串串香,串串香,https://img.meituan.net/msmerchant/ca13d9edca9eb2469b2ea4fe4a89c4f6424116.jpg%40280w_212h_1e_1c_1l%7Cwatermark%3D0,8.5,8.7,8.5,望平街137号,61,028-83513145,30.65838096502199,104.08825547786519
92454309,http://www.dianping.com/shop/92454309,重庆龙溪镇老火锅(海上海店),火锅,http://p1.meituan.net/mogu/7a303a2db2611f0a00d29540acea792f256726.jpg%40240w_180h_1e_1c_1l%7Cwatermark%3D1%26%26r%3D1%26p%3D9%26x%3D2%26y%3D2%26relative%3D1%26o%3D20,8.4,8.4,8.6,和韵路338号,68,028-83260477,30.630101343131823,104.15692251990713
90382034,http://www.dianping.com/shop/90382034,冰火椒蓉串串,串串香,https://img.meituan.net/msmerchant/bd458d0ed737cc3a734123ab20abf153565930.jpg%40280w_212h_1e_1c_1l%7Cwatermark%3D0,8.5,9,9.1,双桥路247号(地铁4号线玉双路C出口10米),60,13808037387,30.655526067020723,104.09781615400462
92131620,http://www.dianping.com/shop/92131620,赞碟▪串串,串串香,https://img.meituan.net/msmerchant/f59e8edfccc644d09265b66ee1308fb41513847.jpg%40280w_212h_1e_1c_1l%7Cwatermark%3D0,8,8.4,7.8,怡福巷36号,53,15388215943,30.685708636230363,104.10559629056635
2799541,http://www.dianping.com/shop/2799541,山城风串串王(建设路总店),串串香,http://qcloud.dpfile.com/pc/EcPQtNi7cA9QbYLKz5qpXoBhNC-IbkOPJlAnCjFbk7BFEh9gDnVrGIULq943m8ZxxwcW-IIQfiNkbGBWOSHBFQ.jpg,8.5,7.8,8.2,建设巷14号(建设中路与建设支巷交汇处),55,028-83249178,30.673979322739097,104.10039415350589
75100927,http://www.dianping.com/shop/75100927,乐山老地方油炸串串(建设巷分店),串串香,http://p0.meituan.net/merchantpic/132c586af3848a098d92cd28edab072829281.jpg%40240w_180h_1e_1c_1l%7Cwatermark%3D1%26%26r%3D1%26p%3D9%26x%3D2%26y%3D2%26relative%3D1%26o%3D20,7.8,7.4,7.7,建设巷14号附4号(在疯狂串串前面一点),47,18682798787,30.67396251623642,104.10123717597112
22585815,http://www.dianping.com/shop/22585815,小二班火锅串串香(锦绣城店),串串香,http://p1.meituan.net/shopmainpic/eb4a129768cae0af620ba9036282e5e730975.jpeg%40240w_180h_1e_1c_1l%7Cwatermark%3D1%26%26r%3D1%26p%3D9%26x%3D2%26y%3D2%26relative%3D1%26o%3D20,8.4,7.7,8.2,蓝光锦绣城威尼斯水街15栋5号(摩玛新城正对面),49,028-64279158,30.630630459650636,104.1532247976909
69809832,http://www.dianping.com/shop/69809832,大签门香串串(新华店),串串香,https://img.meituan.net/msmerchant/134fc497ba95831f2185f192c0a0313c53911.jpg%40280w_212h_1e_1c_1l%7Cwatermark%3D0,9,9,9,新鸿南路77号附1号,60,028-62501028,30.65972348229806,104.10357207188314
57827337,http://www.dianping.com/shop/57827337,小牛串串,串串香,http://qcloud.dpfile.com/pc/YJrGORihEdpdEBaVbKp6WjKEU0OIkSDAv0L0qfMh5_7tzJ2ui-GuL3NsET4yg0AA52lfszCzH6kCpIe1c2_41Q.jpg,8.4,7.1,8.7,新鸿南路77号30栋3单元(新华公园后门对面，新华社区里面),50,13882047082,30.66002128558166,104.10598357735631
68958126,http://www.dianping.com/shop/68958126,胡涂印象老串串(建设店),串串香,https://img.meituan.net/msmerchant/5538264ad9011db2d9d538992b8f8921123598.jpg%40280w_212h_1e_1c_1l%7Cwatermark%3D0,8.8,8.7,8.8,建设北路三段223-225号,61,028-84346598,30.68050772885658,104.11500092859993
5636910,http://www.dianping.com/shop/5636910,盘子串串香.不用蘸碟也很香(总店),串串香,http://p0.meituan.net/deal/2eef649ef3a214c35527f37d4350139156234.jpg%40240w_180h_1e_1c_1l%7Cwatermark%3D1%26%26r%3D1%26p%3D9%26x%3D2%26y%3D2%26relative%3D1%26o%3D20,8.3,7.3,8.3,万兴街6号附14号,46,13558866976,30.654901910644,104.11941648992101
58258535,http://www.dianping.com/shop/58258535,逍遥烫特色串串(猛追湾店),串串香,https://img.meituan.net/msmerchant/ae9d66def72987957057da8a62abdca5686552.jpg%40280w_212h_1e_1c_1l%7Cwatermark%3D0,9.1,8.2,9,猛追湾街81号,54,13980084009,30.66797452486554,104.09534903041474
77233856,http://www.dianping.com/shop/77233856,双椒鲜鱼,自助餐,http://p0.meituan.net/deal/8b9842709fe07c917a06714b0dc1169098235.jpg%40240w_180h_1e_1c_1l%7Cwatermark%3D1%26%26r%3D1%26p%3D9%26x%3D2%26y%3D2%26relative%3D1%26o%3D20,8.3,7.6,8.2,新鸿南路77号37栋(新鸿菜市前行60米，好又来蛋糕店旁边),32,18482177618,30.661119119615268,104.10667872703836
96143710,http://www.dianping.com/shop/96143710,海鲜扇贝王(总店),海鲜,http://p0.meituan.net/mogu/a4cc6851cd2abe4527794425a9e651a7267192.jpg%40240w_180h_1e_1c_1l%7Cwatermark%3D1%26%26r%3D1%26p%3D9%26x%3D2%26y%3D2%26relative%3D1%26o%3D20,7.4,7.5,7.6,双成三路15号附209,N/A,13688355459,30.647126036348993,104.11454116070294
96046699,http://www.dianping.com/shop/96046699,胡涂印象老串串(电子科大店),串串香,https://img.meituan.net/msmerchant/ce2e46c03d55c11f0cac8371ec94258091178.jpg%40280w_212h_1e_1c_1l%7Cwatermark%3D0,8.1,7.9,8.1,建设巷14号(金世纪东区幼儿园),N/A,028-64043794,30.67431133673234,104.1011391555809
21086633,http://www.dianping.com/shop/21086633,二胖牛油串串(双林店),串串香,http://p0.meituan.net/mogu/16c71f28b2ee5b629d099e1e4c0e120c136512.jpg%40240w_180h_1e_1c_1l%7Cwatermark%3D1%26%26r%3D1%26p%3D9%26x%3D2%26y%3D2%26relative%3D1%26o%3D20,8.6,7.3,8.1,双林路35号附7号(成都市第七建筑公司门口),64,18628068472,30.656022589832585,104.10721113054862
67304062,http://www.dianping.com/shop/67304062,乐山油炸长药唐师,串串香,http://p0.meituan.net/xianfu/7712fb371f3f26b4b880f8fa8275dc2332768.jpg%40240w_180h_1e_1c_1l%7Cwatermark%3D1%26%26r%3D1%26p%3D9%26x%3D2%26y%3D2%26relative%3D1%26o%3D20,8.1,7.2,7.8,万兴街4号附4号,38,18190999974,30.654949134292647,104.11860880964815
91679189,http://www.dianping.com/shop/91679189,占花儿牛油串串,串串香,http://p0.meituan.net/deal/4299d047137921a221a1e5476eb4e42254322.jpg%40240w_180h_1e_1c_1l%7Cwatermark%3D1%26%26r%3D1%26p%3D9%26x%3D2%26y%3D2%26relative%3D1%26o%3D20,8.2,7.8,8.2,双林北支路210号(小龙桥),55,13982040404,30.659455249986944,104.10751707509907
96308450,http://www.dianping.com/shop/96308450,黑哥串串香,串串香,https://img.meituan.net/msmerchant/1754e9d087e8848432d860c6610ca93c31557.jpg%40280w_212h_1e_1c_1l%7Cwatermark%3D0,8.5,8.8,8.8,小龙桥路中海·新华府底商内,56,028-83531966,30.660796183262732,104.10851537857278
91587851,http://www.dianping.com/shop/91587851,钢管厂五区小郡肝串串香(339店),串串香,https://img.meituan.net/msmerchant/686a9786615ca719ab8b5f4bea5bb8b3134725.png%40280w_212h_1e_1c_1l%7Cwatermark%3D0,9.2,9.1,9.1,猛追湾滨河路94号339号,57,028-84355273,30.663474065063745,104.09068792418002
96070036,http://www.dianping.com/shop/96070036,钢管兄弟小郡肝串串香,串串香,https://img.meituan.net/msmerchant/16fc567e93a18c37bde7cd91f56e1f9d691004.jpg%40280w_212h_1e_1c_1l%7Cwatermark%3D0,8.9,8.8,8.5,建设南路93号,50,17828067218,30.67217591488188,104.12003122860773
97088186,http://www.dianping.com/shop/97088186,方佬壳火锅渔,自助餐,http://qcloud.dpfile.com/pc/mYps-dKR4QUXVNmta6f1MhVufALOAueXyG4AoUZeBKS6yDO85r4c9iK1SxJXYVNn52lfszCzH6kCpIe1c2_41Q.jpg,9.1,9,9.1,荆翠中路324号(万华苑沿街商铺),N/A,18108074216,30.71877039274645,104.1038203867345
92532909,http://www.dianping.com/shop/92532909,大签门香串串(建设店),串串香,https://img.meituan.net/msmerchant/134fc497ba95831f2185f192c0a0313c53911.jpg%40280w_212h_1e_1c_1l%7Cwatermark%3D0,8.8,9,8.3,建设路26号2栋1单元1层1号(第五大道),55,028-62616246,30.67187831849218,104.10066425364316
75642154,http://www.dianping.com/shop/75642154,七掌柜自助火锅(建设路店),自助餐,https://img.meituan.net/msmerchant/47e59f75094a633ae953f32c888f037c57842.jpg%40280w_212h_1e_1c_1l%7Cwatermark%3D0,7.6,8.2,7.3,建设南新路77号(建新农贸市场楼上),55,028-62393293,30.666925275510344,104.10343771889659
22594781,http://www.dianping.com/shop/22594781,向小二串串,串串香,http://p0.meituan.net/merchantpic/1caadeb8f1a3b319f1fe1781a9a6e07382964.jpg%40240w_180h_1e_1c_1l%7Cwatermark%3D1%26%26r%3D1%26p%3D9%26x%3D2%26y%3D2%26relative%3D1%26o%3D20,8.4,7.3,8,文德路1号附26号(东升街19号),46,13980057184,30.68825654686103,104.10790288246997
53615275,http://www.dianping.com/shop/53615275,喷火小郡肝牛油串串,串串香,http://p1.meituan.net/dpmerchantalbum/cd6aadf913b08dd3bdf5b02eb3732a61194203.jpg%40240w_180h_1e_1c_1l%7Cwatermark%3D1%26%26r%3D1%26p%3D9%26x%3D2%26y%3D2%26relative%3D1%26o%3D20,9.1,7.5,8.5,玉双路3号附28号(链家房产巷内10米),53,15281061112,30.657555150357474,104.09407986136355
91001917,http://www.dianping.com/shop/91001917,赞碟▪干锅,串串香,https://img.meituan.net/msmerchant/867c216724acb58c68e1f9227f88e3d81616464.jpg%40280w_212h_1e_1c_1l%7Cwatermark%3D0,8.2,8.8,8.4,怡福巷30号,50,15388215943,30.685798049941365,104.10575736125861
5610321,http://www.dianping.com/shop/5610321,拜哥油卤串串(全国加盟总店),串串香,http://p0.meituan.net/xianfu/c9694aa4dda0bdf1546af8723feb8ffc49152.jpg%40240w_180h_1e_1c_1l%7Cwatermark%3D1%26%26r%3D1%26p%3D9%26x%3D2%26y%3D2%26relative%3D1%26o%3D20,7.9,6.6,7.3,双林中横路14号(近万年场),58,13688112877,30.65409523040839,104.1068100912035
96066380,http://www.dianping.com/shop/96066380,小二班吃货集结地(财富又一城店),串串香,https://p1.meituan.net/shopmainpic/8ba74b7d3663a1e88fb19508f166269d16427.jpg%40240w_180h_1e_1c_1l%7Cwatermark%3D1%26%26r%3D1%26p%3D9%26x%3D2%26y%3D2%26relative%3D1%26o%3D20,7.8,7.8,7.8,财富又一城负1楼A区,43,13668284359,30.681308863682922,104.09263800374617
58534413,http://www.dianping.com/shop/58534413,辣手摧花,串串香,http://p0.meituan.net/mogu/1dc675a640c6b075ea13932ca9151e4026866.jpg%40240w_180h_1e_1c_1l%7Cwatermark%3D1%26%26r%3D1%26p%3D9%26x%3D2%26y%3D2%26relative%3D1%26o%3D20,8.7,7.6,8.6,新华公园后门万和龙门火锅旁进门右手20米(幼儿园对面),46,15196631581,30.660498705136614,104.10509433200713
95288554,http://www.dianping.com/shop/95288554,醉疯狂牛串串(成渝立交店),串串香,https://img.meituan.net/msmerchant/ba5412cde97885035e7416757e42c7e832759.jpg%40280w_212h_1e_1c_1l%7Cwatermark%3D0,7.3,7.6,7.6,和美东路65号,56,028-81474180,30.631419199293283,104.15260355343503
21811276,http://www.dianping.com/shop/21811276,草根串串(万兴店),串串香,http://p1.meituan.net/msmerchant/c892faf2954fd00ad6b573b384d2438e432041.jpg%40280w_212h_1e_1c_1l%7Cwatermark%3D0,8.2,7.2,7.8,万兴街4号-新1号,54,18108111185,30.654948694922407,104.11812741799629
83202085,http://www.dianping.com/shop/83202085,胡涂印象老串串(动物园店),串串香,https://img.meituan.net/msmerchant/ce2e46c03d55c11f0cac8371ec94258091178.jpg%40280w_212h_1e_1c_1l%7Cwatermark%3D0,8,8.1,8.3,荆竹中路284号,55,028-62614722,30.715988213918212,104.10215429792035
66626526,http://www.dianping.com/shop/66626526,亲吃鱼(龙湖三千集店),川菜,https://img.meituan.net/msmerchant/ae509a5a36367b9fe5781a41c17d060574617.jpg%40240w_180h_1e_1c_1l%7Cwatermark%3D1%26%26r%3D1%26p%3D9%26x%3D2%26y%3D2%26relative%3D1%26o%3D20,7.5,7.7,7.8,建设北路三段6号龙湖三千集3层,63,028-61393538,30.677429908468557,104.10674699567352
8076998,http://www.dianping.com/shop/8076998,特色油卤串串,串串香,http://qcloud.dpfile.com/pc/6JNyQ__MpnRlU-ZnZ08hQ6aEm8XaZC7vVm_W4vjA1uErby3SL8JiuqxTxq0ya0UL52lfszCzH6kCpIe1c2_41Q.jpg,8.1,6.3,7.2,水碾河北二街,43,13880842896,30.65259125565927,104.09666846124581
66289075,http://www.dianping.com/shop/66289075,小龙桥串串香,串串香,http://p0.meituan.net/ugcpic/524812dbfe2eb1d7cf3fed997b845fae%40240w_180h_1e_1c_1l%7Cwatermark%3D1%26%26r%3D1%26p%3D9%26x%3D2%26y%3D2%26relative%3D1%26o%3D20,7.8,7.8,8.1,双林路22号仁禾商务楼1楼5号,58,13558715109,30.653239955408118,104.11105185810725
77463257,http://www.dianping.com/shop/77463257,钢管厂五区小郡肝串串香(华润润街店),串串香,http://p1.meituan.net/dpmerchantalbum/f4f94ef66fb69c845ad838577b1bcb21131300.jpg%40240w_180h_1e_1c_1l%7Cwatermark%3D1%26%26r%3D1%26p%3D9%26x%3D2%26y%3D2%26relative%3D1%26o%3D20,8.2,7.9,7.7,双成三路15号附55号,73,028-84444648,30.64651070727548,104.11376269241569
92729073,http://www.dianping.com/shop/92729073,记忆故事小郡肝串串香(新华公园店),串串香,http://p0.meituan.net/mogu/3366aff9b5371d5bc8069bc49818d7b5105238.jpg%40240w_180h_1e_1c_1l%7Cwatermark%3D1%26%26r%3D1%26p%3D9%26x%3D2%26y%3D2%26relative%3D1%26o%3D20,7.8,7.6,8.3,双林北支路80号(红旗超市旁),58,13521976680,30.659490058341493,104.11075142107121
24031716,http://www.dianping.com/shop/24031716,暹罗魔幻海鲜餐厅.泰式火锅,海鲜,http://p0.meituan.net/deal/87e029b6e4a6c302c38aa2fe0c0d4a4368703.jpg%40240w_180h_1e_1c_1l%7Cwatermark%3D1%26%26r%3D1%26p%3D9%26x%3D2%26y%3D2%26relative%3D1%26o%3D20,7.1,7.4,7.6,二环路东二段SM广场4楼(万达影城旁),69,18030740623,30.67071320741277,104.10923521298808
93599641,http://www.dianping.com/shop/93599641,签签红串串香,串串香,http://qcloud.dpfile.com/pc/cqox0X27mc46g5XVSqiZvhw994Ocz7-LyMk7msOI1axuPZT6T-DqHOMf7cEoDnZG52lfszCzH6kCpIe1c2_41Q.jpg,9,9,9.1,建设路建设南路188号,44,N/A,30.674008569837298,104.12449042551292
58503389,http://www.dianping.com/shop/58503389,张记火锅粉,小吃快餐,http://p0.meituan.net/xianfu/ef3432e36998deb2a3161fc2fbcab2f828672.jpg%40240w_180h_1e_1c_1l%7Cwatermark%3D1%26%26r%3D1%26p%3D9%26x%3D2%26y%3D2%26relative%3D1%26o%3D20,7.5,6.8,7.2,建设巷11号,16,18683432299,30.67228312774576,104.10061723415416
9965542,http://www.dianping.com/shop/9965542,潮牛庄园(三千集店),火锅,http://p1.meituan.net/apiback/b8207b1332686ff9e4ed79c263d3f839269912.jpg%40240w_180h_1e_1c_1l%7Cwatermark%3D1%26%26r%3D1%26p%3D9%26x%3D2%26y%3D2%26relative%3D1%26o%3D20,7.5,7.7,7.6,建设北路三段2号龙湖天街三千集购物中心3楼,100,028-84431155,30.677717845473964,104.10688902653533
72340976,http://www.dianping.com/shop/72340976,米易特色铜火锅,火锅,http://p1.meituan.net/deal/aaabf9a971389200ff1d18c35e80a5ca1060902.jpg%40240w_180h_1e_1c_1l%7Cwatermark%3D1%26%26r%3D1%26p%3D9%26x%3D2%26y%3D2%26relative%3D1%26o%3D20,6.9,6.9,6.9,东紫路东林商业广场,31,15908138933,30.71636325093974,104.10777653946694
63202871,http://www.dianping.com/shop/63202871,易老四跷脚牛肉(建设巷店),火锅,http://qcloud.dpfile.com/pc/V2E3duoKWtDcBl9-U-3nHf5i-9UidnvM6KCO0uj5mFXhEitmnT-fuqFPNF2yXZ8x52lfszCzH6kCpIe1c2_41Q.jpg,7.5,7.3,7.2,建设路26号附272号(科大万人宿舍对面),45,15386538444,30.672443112881737,104.10087723259879
8037512,http://www.dianping.com/shop/8037512,重庆万杰老灶火锅(八里庄店),火锅,http://qcloud.dpfile.com/pc/q-Qhj0vPYhQ66a4qUBcfp1PUrJbW94NIQf734GMhW_tXdUmKOIsedTK6ju9gk4wi52lfszCzH6kCpIe1c2_41Q.jpg,8,7.7,7.4,新风路4号,71,028-84722272,30.68717616571635,104.10813901881649
92208109,http://www.dianping.com/shop/92208109,千椒兔辣辣(驷马桥店),火锅,https://img.meituan.net/msmerchant/4ada0a47595694780ce2bae3c5e76da9167425.jpg%40280w_212h_1e_1c_1l%7Cwatermark%3D0,7.2,7.6,7.2,羊子山西路126路,61,028-84114478,30.71023138300234,104.09279763344749
92382747,http://www.dianping.com/shop/92382747,围炉拾味·创意火锅(望平街店),火锅,http://p0.meituan.net/deal/70efad414d5b18aade8952d1dc3b203882921.jpg%40240w_180h_1e_1c_1l%7Cwatermark%3D1%26%26r%3D1%26p%3D9%26x%3D2%26y%3D2%26relative%3D1%26o%3D20,7.9,8.2,8.1,东风路4号(春熙路),78,028-64981669,30.655653626452548,104.08693144899244
5637206,http://www.dianping.com/shop/5637206,刘师傅特味火锅兔头,兔头/兔丁,http://p1.meituan.net/xianfu/ab009d7750dfc99ae6c41797b195a43018617.jpg%40240w_180h_1e_1c_1l%7Cwatermark%3D1%26%26r%3D1%26p%3D9%26x%3D2%26y%3D2%26relative%3D1%26o%3D20,7.5,7,7.3,双林北支路新鸿农贸市场内(近新华公园后门),36,028-84345132,30.660306257875078,104.1062026249063
73622236,http://www.dianping.com/shop/73622236,大牛合潮汕鲜牛肉(动物园店),火锅,https://img.meituan.net/msmerchant/914688c2e697b35f73358f3a95449c64108144.jpg%40280w_212h_1e_1c_1l%7Cwatermark%3D0,7.2,7.4,7.6,昭觉寺横街9号华润熙悦广场13栋301-302室,77,028-62523230,30.715401478757688,104.1020913194302
96583854,http://www.dianping.com/shop/96583854,舟小渔鱼蛙主题餐厅(建设路店),火锅,https://img.meituan.net/msmerchant/811465928488f5d0d4bcb26c76e25c3f597736.jpg%40280w_212h_1e_1c_1l%7Cwatermark%3D0,7.2,7.3,7.5,建设巷14号附6号,47,028-62611479,30.67406341659905,104.10100416186964
65881596,http://www.dianping.com/shop/65881596,頭鼎火锅,火锅,http://qcloud.dpfile.com/pc/kscZPsgMfrIYf28J6yP1cXXYe9gL7t-i0o0OyaY7XhIVnBGjkhpKEC5GfeK-Ez0-xwcW-IIQfiNkbGBWOSHBFQ.jpg,8.2,8.4,8,双桥路213号(中联上成酒店旁),63,028-83551361,30.654546858670997,104.10034004968263
11405946,http://www.dianping.com/shop/11405946,菌林天下汤锅(万科魅力店),火锅,http://p1.meituan.net/mogu/786ea5536da95dfb9ce1867bdfb209a842590.jpg%40240w_180h_1e_1c_1l%7Cwatermark%3D1%26%26r%3D1%26p%3D9%26x%3D2%26y%3D2%26relative%3D1%26o%3D20,7.5,7.5,7.5,万科路116号魅力新天地1号楼303号(工商银行对面),68,028-83238188,30.62906746896046,104.15230623218085
58479195,http://www.dianping.com/shop/58479195,魏知味野生菌滋补养生汤锅(新鸿路店),火锅,http://p0.meituan.net/deal/f94fa1f8bdfa5df15da080c00057980496262.jpg%40240w_180h_1e_1c_1l%7Cwatermark%3D1%26%26r%3D1%26p%3D9%26x%3D2%26y%3D2%26relative%3D1%26o%3D20,7.3,7.5,7.5,新鸿路300号,38,18981993558,30.664100010114414,104.10170465785015
97457002,http://www.dianping.com/shop/97457002,钢管厂五区小郡肝串串香(东郊记忆店),串串香,http://qcloud.dpfile.com/pc/6CHSmJXyya57U37qWVki5qZIu0rr8ocM1Z5eTluNTBuPehjCOzPN2DK1MQtsjbXY52lfszCzH6kCpIe1c2_41Q.jpg,7.6,7.7,7.6,建设南路26号,N/A,N/A,30.671652162164822,104.11676359054749
22244660,http://www.dianping.com/shop/22244660,绝城芋儿鸡(动物园店),火锅,http://p0.meituan.net/apiback/80b4d277def760a98b9aaaa51611055a76041.jpg%40240w_180h_1e_1c_1l%7Cwatermark%3D1%26%26r%3D1%26p%3D9%26x%3D2%26y%3D2%26relative%3D1%26o%3D20,7.4,7.4,7.4,东紫路499号附104号(金科一城三号门),49,028-62502926,30.71361506874035,104.1067483255639
22449773,http://www.dianping.com/shop/22449773,重庆临江门毛肚火锅(双林路店),火锅,http://p1.meituan.net/apiback/6f43a3c2a8853b6d58794512f0dbcb95259725.jpg%40240w_180h_1e_1c_1l%7Cwatermark%3D1%26%26r%3D1%26p%3D9%26x%3D2%26y%3D2%26relative%3D1%26o%3D20,7.8,8.3,8,双林中横路101号(金玉阳光酒店对面),70,028-84346002,30.654992562863463,104.1082505447263
5688575,http://www.dianping.com/shop/5688575,砂鱼银行饭局,川菜,http://qcloud.dpfile.com/pc/bKy-_DFJkpFM9NqeJG1SeKrrFKJGImw2QgiL7nz9fcx5A1dtNM723PBv4iYRCNuI52lfszCzH6kCpIe1c2_41Q.jpg,7.5,6.7,7.6,圣灯路101号(近东郊记忆),68,13408633668,30.676314924795037,104.12090782483425
93182924,http://www.dianping.com/shop/93182924,嘎嘎鸭脑壳(红枫岭店),火锅,http://p1.meituan.net/mogu/1af0f524de0aff33025f1f5a1a1daa8423726.jpg%40240w_180h_1e_1c_1l%7Cwatermark%3D1%26%26r%3D1%26p%3D9%26x%3D2%26y%3D2%26relative%3D1%26o%3D20,7,7.5,7.2,枫林路108号(靠近阿里巴网咖),72,028-83511597,30.674795198322354,104.12186778457563
76388673,http://www.dianping.com/shop/76388673,百味记小郡肝砂罐串串(金马河路店),火锅,http://p1.meituan.net/mogu/9bdbbbf508382dd4eea4c923635dd220130924.jpg%40240w_180h_1e_1c_1l%7Cwatermark%3D1%26%26r%3D1%26p%3D9%26x%3D2%26y%3D2%26relative%3D1%26o%3D20,7.3,7.6,7.5,金马河路8号附18号(链家旁边不要走错咯),79,18081352899,30.634394422126277,104.14540212813516
93635870,http://www.dianping.com/shop/93635870,小龙坎老火锅(双庆路店),火锅,https://img.meituan.net/msmerchant/c70e551ddc77402991c4b59ec126b89e1165953.jpg%40280w_212h_1e_1c_1l%7Cwatermark%3D0,7,7,7.1,双庆路45号院附2号,N/A,028-85555013,30.65356272218408,104.12068566944208
67846961,http://www.dianping.com/shop/67846961,根号贰牛杂火锅,火锅,http://p1.meituan.net/mogu/0d8cf09d858f4fb3030a5e9a48c1c022285206.jpg%40240w_180h_1e_1c_1l%7Cwatermark%3D1%26%26r%3D1%26p%3D9%26x%3D2%26y%3D2%26relative%3D1%26o%3D20,8.2,7.7,8.6,华林三路1号附109(小米快跑对面),52,18784028498,30.68330760316082,104.13943741975905
5595540,http://www.dianping.com/shop/5595540,方姐兔火锅,火锅,http://p0.meituan.net/xianfu/1dc59108f55914504f2716b6db5c71d543008.jpg%40240w_180h_1e_1c_1l%7Cwatermark%3D1%26%26r%3D1%26p%3D9%26x%3D2%26y%3D2%26relative%3D1%26o%3D20,7.6,6.4,7.1,猛追湾街建设路54号住宅小区新6幢1单元商铺麦田锅盔旁(建设路华联对面),54,13981850361,30.67112617753078,104.09411922329502
69630498,http://www.dianping.com/shop/69630498,绝味美蛙鱼头火锅,火锅,http://p1.meituan.net/mogu/1c3a9e829837986e1f22413ec16606aa148129.jpg%40240w_180h_1e_1c_1l%7Cwatermark%3D1%26%26r%3D1%26p%3D9%26x%3D2%26y%3D2%26relative%3D1%26o%3D20,7.3,7.3,7.5,双林中横路33号,58,028-83596468,30.652169962295606,104.10660311670071
58946246,http://www.dianping.com/shop/58946246,皇味黄牛肉生态汤锅(昭觉寺店),火锅,http://qcloud.dpfile.com/pc/YZSzNHjv9XFjsgQ4o1tyfCo_rwZ1maOYF81xCdL3Gcrspus1s5HjMfZTjuMsN5Hl52lfszCzH6kCpIe1c2_41Q.jpg,7.9,8,7.9,昭觉寺南路396号,58,028-83520728,30.717650337768426,104.10187719785866
95334383,http://www.dianping.com/shop/95334383,重庆小龙坎老火锅(龙潭寺店),火锅,http://qcloud.dpfile.com/pc/BWCKem1GlMLS3tM3LW5BHbcbXRMjoEeiLXCRB2o9L9igc9RJlnFycIAKPeAVvXnM52lfszCzH6kCpIe1c2_41Q.jpg,7.2,7.1,7.3,宝耳路8号(瓦罐罐酒楼对面),76,028-83251077,30.695206878924896,104.16326146245713
90097550,http://www.dianping.com/shop/90097550,老板数签签(成华店),火锅,http://p1.meituan.net/mogu/ece3e076d036a6422a8032b8a585073185564.jpg%40240w_180h_1e_1c_1l%7Cwatermark%3D1%26%26r%3D1%26p%3D9%26x%3D2%26y%3D2%26relative%3D1%26o%3D20,7.8,8.1,7.9,高车三路永立星城都1楼,59,15882333064,30.69231655280476,104.09736951537054
90984239,http://www.dianping.com/shop/90984239,三娃·重庆砂锅煲(望平街店),火锅,http://p1.meituan.net/deal/2865772a821a534b8285de3361708af41443157.jpg%40240w_180h_1e_1c_1l%7Cwatermark%3D1%26%26r%3D1%26p%3D9%26x%3D2%26y%3D2%26relative%3D1%26o%3D20,7.7,7.7,8.3,望平街119号-121号天祥大厦斜对面,37,028-62601951,30.65801516952479,104.08811957735382
5642069,http://www.dianping.com/shop/5642069,老重庆老火锅,火锅,http://qcloud.dpfile.com/pc/3s3nbBppMhxUtFXtMgbj7nTxpwt_XB2QvcmeNoPpYOD-U8Qa0LzrmFRWfoGU7bVc52lfszCzH6kCpIe1c2_41Q.jpg,8,7.5,7.7,望平滨河路6号1层4号(香香巷内),87,18980505845,30.656391165630026,104.08730116985689
24029695,http://www.dianping.com/shop/24029695,上汤皇牛汤锅(桃蹊路店),火锅,http://p0.meituan.net/deal/7f97158fc68bf0036f5a96178da9d8c6472081.jpg%40240w_180h_1e_1c_1l%7Cwatermark%3D1%26%26r%3D1%26p%3D9%26x%3D2%26y%3D2%26relative%3D1%26o%3D20,7.7,7.5,7.2,桃蹊路18号交警5分局斜对面(二环高架旁),89,028-86638880,30.683078199373565,104.10394705714494
5571750,http://www.dianping.com/shop/5571750,巴蜀宽宅门火锅(川陕店),火锅,http://p0.meituan.net/msmerchant/ecffd918a8feece9ee1c5baa199f2f924456165.jpeg%40240w_180h_1e_1c_1l%7Cwatermark%3D1%26%26r%3D1%26p%3D9%26x%3D2%26y%3D2%26relative%3D1%26o%3D20,7.3,7.5,7.3,昭觉南路402-410号(近上东生活广场),66,028-66379388,30.717710323772774,104.10193319948479
45665212,http://www.dianping.com/shop/45665212,顺财河鲜自助火锅,自助餐,http://p0.meituan.net/deal/f3d7c7b5b66b516ec80e8c40361d2a9c54486.jpg%40240w_180h_1e_1c_1l%7Cwatermark%3D1%26%26r%3D1%26p%3D9%26x%3D2%26y%3D2%26relative%3D1%26o%3D20,8.2,7.1,7.6,新鸿南路6号,53,028-84123865,30.6601372441642,104.10339902612635
6335905,http://www.dianping.com/shop/6335905,牙尖十八怪串串(全国总店),串串香,http://p0.meituan.net/msmerchant/2d9ea753933726eb02fa2f5ee505d3e146205.jpg%40240w_180h_1e_1c_1l%7Cwatermark%3D1%26%26r%3D1%26p%3D9%26x%3D2%26y%3D2%26relative%3D1%26o%3D20,7.8,7.1,7.7,新鸿南路77号15栋(近新华公园后门),54,028-86273839,30.660505669020353,104.10501131272866
97292422,http://www.dianping.com/shop/97292422,刘氏思哇哒美蛙鱼头火锅,火锅,http://p0.meituan.net/mogu/1629a5fdb03f406e4242709eb1011701171859.jpg%40240w_180h_1e_1c_1l%7Cwatermark%3D1%26%26r%3D1%26p%3D9%26x%3D2%26y%3D2%26relative%3D1%26o%3D20,7.2,7.6,7.3,洪山路28号附12号鑫禾大厦楼下沿街商铺(如家快捷酒店旁),N/A,13666105910,30.707227701256652,104.09270603943384
93387404,http://www.dianping.com/shop/93387404,巴蜀醉飘香火锅,火锅,https://img.meituan.net/msmerchant/6b7d2687c2cba10c4d34dd6f2ff5d47e1918264.jpg%40280w_212h_1e_1c_1l%7Cwatermark%3D0,8,7.8,8.1,怡福路31号,50,028-87711002,30.686452861276518,104.10641025944946
77271406,http://www.dianping.com/shop/77271406,小龙坎·老火锅(万象润街店),火锅,https://img.meituan.net/msmerchant/7f32ac78ebe6b7852620421a91973836172231.jpg%40280w_212h_1e_1c_1l%7Cwatermark%3D0,6.3,6.7,6.6,双成三路15号润街广场二楼(万年场地铁站a出口),78,028-84126654,30.647133362241735,104.11496243989876
40276974,http://www.dianping.com/shop/40276974,老味道鲜鱼坊(龙湖三千集店),火锅,http://p1.meituan.net/deal/68c7354e10593d8aceac19305dc4df73417197.png%40240w_180h_1e_1c_1l%7Cwatermark%3D1%26%26r%3D1%26p%3D9%26x%3D2%26y%3D2%26relative%3D1%26o%3D20,7.2,7.1,7.4,建祥路4号附1号颐和家园后门,42,18980003739,30.67720607404211,104.11208029415555
92600654,http://www.dianping.com/shop/92600654,顶尖高手小郡肝串串香,串串香,http://p1.meituan.net/mogu/e81438bbf36fbb3e4a68172cba70f821422984.png%40240w_180h_1e_1c_1l%7Cwatermark%3D1%26%26r%3D1%26p%3D9%26x%3D2%26y%3D2%26relative%3D1%26o%3D20,7.8,7.4,7.4,建业路8号,53,028-83511471,30.671590788452352,104.11134241318115
72354131,http://www.dianping.com/shop/72354131,味在小龙坎老火锅(双荆路店),火锅,http://p0.meituan.net/mogu/5edcca54fcccbecc8b50336b7cf8bc0053791.jpg%40240w_180h_1e_1c_1l%7Cwatermark%3D1%26%26r%3D1%26p%3D9%26x%3D2%26y%3D2%26relative%3D1%26o%3D20,7.6,7.9,7.9,双荆路2号附97-99号,75,028-61111143,30.710842786357976,104.09523008047638
45378269,http://www.dianping.com/shop/45378269,澳盟清汤鲜黄牛肉(动物园店),火锅,http://p0.meituan.net/deal/b1b389c7ef77bc2aad8d0cd73af8f5fd90761.jpg%40240w_180h_1e_1c_1l%7Cwatermark%3D1%26%26r%3D1%26p%3D9%26x%3D2%26y%3D2%26relative%3D1%26o%3D20,7.2,6.9,6.9,288号豆汤饭旁边,62,028-83282268,30.715767288591657,104.1020392980366
67312630,http://www.dianping.com/shop/67312630,黄记煌三汁焖锅(凯德广场店),火锅,http://p0.meituan.net/xianfu/e30949b031b8293e4e825a1de19f820b57431.jpg%40240w_180h_1e_1c_1l%7Cwatermark%3D1%26%26r%3D1%26p%3D9%26x%3D2%26y%3D2%26relative%3D1%26o%3D20,7.6,7.9,7.7,万科路9号凯德广场4层,70,028-84736067,30.629186247152894,104.15050004514771
526326,http://www.dianping.com/shop/526326,重庆德庄火锅(玉双店),火锅,http://p0.meituan.net/deal/ae0dc0c1de7cab57657dbf992ce90f7d95859.jpg%40240w_180h_1e_1c_1l%7Cwatermark%3D1%26%26r%3D1%26p%3D9%26x%3D2%26y%3D2%26relative%3D1%26o%3D20,7.3,7.1,7.2,玉双路2号附3号二层,60,028-84403789,30.65632962435813,104.09546054061406
69087561,http://www.dianping.com/shop/69087561,土巴碗鲜毛肚火锅,火锅,http://p0.meituan.net/mogu/e621b52d529ad6d5f0e62d0de001066475744.jpg%40240w_180h_1e_1c_1l%7Cwatermark%3D1%26%26r%3D1%26p%3D9%26x%3D2%26y%3D2%26relative%3D1%26o%3D20,7.7,8.2,7.6,圣灯路东郊记忆东大门正对面,79,028-64861686,30.672324583888177,104.12271872797672
19269979,http://www.dianping.com/shop/19269979,藤椒鱼火锅,自助餐,http://p1.meituan.net/deal/c3408cc6dafee3f549724271c25e35a4342630.jpg%40240w_180h_1e_1c_1l%7Cwatermark%3D1%26%26r%3D1%26p%3D9%26x%3D2%26y%3D2%26relative%3D1%26o%3D20,7.1,6.9,7,万兴街3号新3,31,13438349793,30.65473698660703,104.11942150179762
90019555,http://www.dianping.com/shop/90019555,海盗欢乐鱼捞(雍华府店),火锅,https://img.meituan.net/msmerchant/31ef99a6559ce438982b3db3e8f3664b1959386.jpg%40280w_212h_1e_1c_1l%7Cwatermark%3D0,7.5,7.5,7.2,双荆路2号附67号1楼,79,028-62614725,30.711208618906323,104.0949631321548
4715771,http://www.dianping.com/shop/4715771,刘婆串串香,串串香,http://p1.meituan.net/deal/7354e3f34382c5695ed0e37a7b35ee47173867.jpg%40240w_180h_1e_1c_1l%7Cwatermark%3D1%26%26r%3D1%26p%3D9%26x%3D2%26y%3D2%26relative%3D1%26o%3D20,7.9,7.6,7.9,望平街80号(近东风大桥),40,13880073538,30.657530332589808,104.08826151342794
73558780,http://www.dianping.com/shop/73558780,龙传调花园火锅,火锅,http://p0.meituan.net/deal/c7448831ab96cadf612f027af193650672489.jpg%40240w_180h_1e_1c_1l%7Cwatermark%3D1%26%26r%3D1%26p%3D9%26x%3D2%26y%3D2%26relative%3D1%26o%3D20,7.7,8.3,7.8,永立星城都3号楼4楼,84,028-84114455,30.692220594161558,104.0973265260155
96047005,http://www.dianping.com/shop/96047005,焱九簋美蛙鱼头(理工大学店),火锅,https://img.meituan.net/msmerchant/89ff51edb42cd63030d8e0e9c64b4ceb71742.jpg%40280w_212h_1e_1c_1l%7Cwatermark%3D0,7.7,7.7,7.8,东华一路41号附20号一楼(世纪华联，铁建广场),N/A,15928042275,30.68330187532709,104.13961268634655
80534462,http://www.dianping.com/shop/80534462,重庆老船夫冷锅鱼,自助餐,http://p1.meituan.net/deal/b42eb9bd267a734a67af42689d429e431066378.jpg%40240w_180h_1e_1c_1l%7Cwatermark%3D1%26%26r%3D1%26p%3D9%26x%3D2%26y%3D2%26relative%3D1%26o%3D20,7.6,7.7,7.6,祥和里103号,43,15528093788,30.659609240903105,104.09431869452085
95545288,http://www.dianping.com/shop/95545288,驴鼎记,火锅,http://p0.meituan.net/mogu/e2c879d8d6bb254b76e66ab0b91e41396203.jpg%40240w_180h_1e_1c_1l%7Cwatermark%3D1%26%26r%3D1%26p%3D9%26x%3D2%26y%3D2%26relative%3D1%26o%3D20,7.5,7.3,7.5,和锦路267号2楼(功夫兔下面),N/A,028-84346977,30.630499497319384,104.15321578753513
17192056,http://www.dianping.com/shop/17192056,老船舫自助火锅东林店,自助餐,http://p0.meituan.net/mogu/5b64a611a42d45812b9e9bb6a6b2855863665.jpg%40240w_180h_1e_1c_1l%7Cwatermark%3D1%26%26r%3D1%26p%3D9%26x%3D2%26y%3D2%26relative%3D1%26o%3D20,7.3,7.5,7.5,东紫路618号东林商业广场二楼(北新实验小学对面，三环路川陕立交),73,028-83119158,30.71632913967093,104.10752345261753
33504550,http://www.dianping.com/shop/33504550,地瓜老火锅(财富又一城店),火锅,http://p0.meituan.net/apiback/43a6e1c75d89aee42cca6207ec73d85c1910008.jpg%40240w_180h_1e_1c_1l%7Cwatermark%3D1%26%26r%3D1%26p%3D9%26x%3D2%26y%3D2%26relative%3D1%26o%3D20,7.9,8,7.5,财富又一城华油路6号附3号,85,028-83281666,30.68184440117612,104.09354091407891
92375205,http://www.dianping.com/shop/92375205,小龙坎原味火锅冒菜,火锅,http://qcloud.dpfile.com/pc/j_mjSRWvE-RREZP0UTFu0Icmp50LduBUWfzLpBIz-QhLIGuYoHJqltiHLlWgX5gA52lfszCzH6kCpIe1c2_41Q.jpg,7.8,7.8,7.8,建设路26号1幢3单元1层,N/A,15308049303,30.671424040102156,104.10022005980842
5488984,http://www.dianping.com/shop/5488984,乾丰小海鲜精品耗儿鱼,火锅,http://p0.meituan.net/deal/054fb656857dd007cadc0e2dbb4b4e47543362.jpeg%40240w_180h_1e_1c_1l%7Cwatermark%3D1%26%26r%3D1%26p%3D9%26x%3D2%26y%3D2%26relative%3D1%26o%3D20,7,6.9,7,二环路东二段22-24，SM广场KFC对面(近SM广场),81,028-84352968,30.669077848624326,104.10908322485713
5557869,http://www.dianping.com/shop/5557869,天天梭边鱼,火锅,http://p0.meituan.net/apiback/6c1cc94da5a9fb63ece657b920bd1a2b120568.jpg%40240w_180h_1e_1c_1l%7Cwatermark%3D1%26%26r%3D1%26p%3D9%26x%3D2%26y%3D2%26relative%3D1%26o%3D20,7.9,7.4,7.4,下涧槽三坪路机车车辆厂家属区内(近成都理工大学),50,028-62614480,30.681186564895356,104.13745255662369
76837220,http://www.dianping.com/shop/76837220,顺一鱼馆,火锅,http://p1.meituan.net/mogu/4df51749ea9dda1a22fe77f63a17047b221496.jpg%40240w_180h_1e_1c_1l%7Cwatermark%3D1%26%26r%3D1%26p%3D9%26x%3D2%26y%3D2%26relative%3D1%26o%3D20,7.7,7.6,7.6,永立星城都内肆坊2楼,55,18281820633,30.692305581854125,104.09767347455758
79619149,http://www.dianping.com/shop/79619149,古食古香翘脚牛肉,火锅,http://p1.meituan.net/deal/b7d0eca218b463d3843f1f727a3022aa29163.jpg%40240w_180h_1e_1c_1l%7Cwatermark%3D1%26%26r%3D1%26p%3D9%26x%3D2%26y%3D2%26relative%3D1%26o%3D20,7.2,7.2,7.1,双成三路15号附16,35,15520369444,30.64995320104377,104.11624320596978
97240376,http://www.dianping.com/shop/97240376,让签签飞小郡肝串串香(理工店),火锅,http://qcloud.dpfile.com/pc/YNfd2VXQ0larF_3k8_4wKmd9BedM873TtBTbjvnrRj21tiHoIFh7s4vj3i5usYHJ52lfszCzH6kCpIe1c2_41Q.jpg,7.6,7.8,7.8,民兴路888号理工东苑24栋1-4、5,N/A,15982359826,30.684733309987987,104.1505756463988
92714284,http://www.dianping.com/shop/92714284,谢记小龙坎老火锅(新风路店),火锅,https://img.meituan.net/msmerchant/f89aa8dc0aa7a1dabe0f64ab220671a9249455.jpg%40280w_212h_1e_1c_1l%7Cwatermark%3D0,7.2,7.5,7.4,八里小区新风路113号,68,028-84322177,30.69033642747367,104.10680752804744
30255595,http://www.dianping.com/shop/30255595,大碗熊火锅米线(万象城总店),小吃快餐,http://p0.meituan.net/mogu/6d26c79dca8f8f17d3202b0863825dbe198507.jpg%40240w_180h_1e_1c_1l%7Cwatermark%3D1%26%26r%3D1%26p%3D9%26x%3D2%26y%3D2%26relative%3D1%26o%3D20,7.5,7.4,7.5,华润二十四城三期正大门双成三路17号附29号,15,13348827377,30.6497451333029,104.11605507964413
22669290,http://www.dianping.com/shop/22669290,汤锅王清汤鲜黄牛肉,火锅,http://p1.meituan.net/deal/1f09d2a0edce723567c82ecc6fd4e87c342544.jpg%40240w_180h_1e_1c_1l%7Cwatermark%3D1%26%26r%3D1%26p%3D9%26x%3D2%26y%3D2%26relative%3D1%26o%3D20,7.5,7.2,7.3,洪山北路222号良品铺子楼上,74,028-69588670,30.70959451652208,104.09319175269661
79436023,http://www.dianping.com/shop/79436023,壹石壹锅,火锅,http://p0.meituan.net/deal/294cb59fe17f1e2ec7723fc3bd543d8b42841.jpg%40240w_180h_1e_1c_1l%7Cwatermark%3D1%26%26r%3D1%26p%3D9%26x%3D2%26y%3D2%26relative%3D1%26o%3D20,7.6,7.8,8.1,高车三路69号永立星城都1楼114号,58,028-83133120,30.69194570361201,104.097050580779
16723397,http://www.dianping.com/shop/16723397,3号自助火锅(新鸿路店),自助餐,http://p0.meituan.net/deal/8b020801484b7f30f61c8a7f583740a7134556.jpg%40240w_180h_1e_1c_1l%7Cwatermark%3D1%26%26r%3D1%26p%3D9%26x%3D2%26y%3D2%26relative%3D1%26o%3D20,7.5,7.4,7.4,一环路东三段200号(新鸿医院对面),62,028-62120678,30.663989630825245,104.09972662177609
74632232,http://www.dianping.com/shop/74632232,嘎嘎鸭脑壳(东林社区店),火锅,http://p1.meituan.net/mogu/1af0f524de0aff33025f1f5a1a1daa8423726.jpg%40240w_180h_1e_1c_1l%7Cwatermark%3D1%26%26r%3D1%26p%3D9%26x%3D2%26y%3D2%26relative%3D1%26o%3D20,7.8,7.9,7.3,东紫路618号1层107、108号,74,028-84348658,30.716583028399835,104.10754544845624
93310566,http://www.dianping.com/shop/93310566,极味虾,火锅,http://p1.meituan.net/mogu/cff6a274630f3b37951334f07be682f1470417.jpg%40240w_180h_1e_1c_1l%7Cwatermark%3D1%26%26r%3D1%26p%3D9%26x%3D2%26y%3D2%26relative%3D1%26o%3D20,8.2,7.8,8.1,双成三路15号附52号,N/A,028-83208817,30.646376826747904,104.11384675095226
75726862,http://www.dianping.com/shop/75726862,巴蜀晓宇火锅(海上海店),火锅,https://img.meituan.net/msmerchant/1dd1436f2b749245f0f78e4cbae19151769183.png%40280w_212h_1e_1c_1l%7Cwatermark%3D0,7.3,7.4,7.4,和韵路296号海上海店,67,028-62316898,30.629602611952247,104.1564086020894
93324024,http://www.dianping.com/shop/93324024,小龙坎原味火锅(建设路店),火锅,http://p0.meituan.net/mogu/5639354065e638828268180e33b342fa199181.jpg%40240w_180h_1e_1c_1l%7Cwatermark%3D1%26%26r%3D1%26p%3D9%26x%3D2%26y%3D2%26relative%3D1%26o%3D20,7.3,7.3,7.3,一环路东一段13-附5号(建设路菜市场门口),N/A,17360162923,30.67142904253993,104.09731548738229
96114646,http://www.dianping.com/shop/96114646,颜婆婆老区小郡肝串串香(建设南新路店),串串香,https://img.meituan.net/msmerchant/a1b16d6a173d443a8eb4713d6a748727641001.jpg%40280w_212h_1e_1c_1l%7Cwatermark%3D0,7.5,7.5,7.5,建设南新路61号(东郊人民食堂),N/A,028-87057808,30.66714605310108,104.10305165362456
50534020,http://www.dianping.com/shop/50534020,老铁哥老火锅,火锅,http://qcloud.dpfile.com/pc/yAkFrTpz05ia5w29WQLgNWmpOdCsCjC8CNouOj6JMrEikEni-fuyAaWSlxWlmmXg52lfszCzH6kCpIe1c2_41Q.jpg,8.1,6.5,7.1,建设西街2号附18号,62,13981718282,30.669072349731838,104.10816086205128
75093434,http://www.dianping.com/shop/75093434,吴铭怀旧火锅(理工东苑店),火锅,http://p1.meituan.net/deal/e3a6907dff5e5a23b927e3e21dab4e11127543.jpg%40240w_180h_1e_1c_1l%7Cwatermark%3D1%26%26r%3D1%26p%3D9%26x%3D2%26y%3D2%26relative%3D1%26o%3D20,7.7,8,7.9,民兴路888号理工东苑商业街24栋1楼2号,73,028-87526619,30.68549321095752,104.15071786072502
57829747,http://www.dianping.com/shop/57829747,蜀味真牛·养生牛肉馆,火锅,http://p0.meituan.net/merchantpic/4b7e9569d06caf0237475e29ba5a3080160313.jpg%40240w_180h_1e_1c_1l%7Cwatermark%3D1%26%26r%3D1%26p%3D9%26x%3D2%26y%3D2%26relative%3D1%26o%3D20,7.3,7.1,7.2,双成三路15号附216号,81,15883553333,30.646352170293508,104.11555788376772
92749896,http://www.dianping.com/shop/92749896,围炉火锅,火锅,http://p0.meituan.net/deal/fa42845a2cb055553f1d941f38d379a1204032.jpg%40240w_180h_1e_1c_1l%7Cwatermark%3D1%26%26r%3D1%26p%3D9%26x%3D2%26y%3D2%26relative%3D1%26o%3D20,7.5,7.4,7.7,建设西街3号光明馨苑西区25幢,N/A,18008086506,30.665860921963663,104.10642843368218
22829417,http://www.dianping.com/shop/22829417,肥臀娃快捷火锅,火锅,http://p0.meituan.net/deal/93f61d472354a3cbd10fd4a67a8e3643398206.jpg%40240w_180h_1e_1c_1l%7Cwatermark%3D1%26%26r%3D1%26p%3D9%26x%3D2%26y%3D2%26relative%3D1%26o%3D20,7.9,7.5,7.9,万科路5号(凯德广场旁),27,028-61386853,30.62972357896718,104.14908756896354
68175996,http://www.dianping.com/shop/68175996,千寻牛排海鲜烤肉火锅自助,自助餐,http://p0.meituan.net/deal/3f936f7739f4894e2ed5e45405863be626591.jpg%40240w_180h_1e_1c_1l%7Cwatermark%3D1%26%26r%3D1%26p%3D9%26x%3D2%26y%3D2%26relative%3D1%26o%3D20,6.6,6.8,6.7,财富又一城负一楼（119）号(一环路府青立交),70,028-83356566,30.680465196106365,104.0921964741197
22172085,http://www.dianping.com/shop/22172085,英雄二食堂火锅,火锅,http://p1.meituan.net/apiback/83dbf4204f018d64316ea5d7e384190e125231.jpg%40240w_180h_1e_1c_1l%7Cwatermark%3D1%26%26r%3D1%26p%3D9%26x%3D2%26y%3D2%26relative%3D1%26o%3D20,8.1,8.3,8.3,二环路东三段65号,59,028-84373950,30.648990690590654,104.1092552226396
93527475,http://www.dianping.com/shop/93527475,九品九尺鸭肠王自助火锅超市,自助餐,http://qcloud.dpfile.com/pc/fNEH4o6I8rxaK7bCoYtU_ESuKUNys9aIHbVtjhbA45-ZRJPppoEcDwiwGK5id0Mu52lfszCzH6kCpIe1c2_41Q.jpg,7.1,7.1,7.5,桃蹊路181号(芙蓉大药房斜对面),N/A,028-84349456,30.68464991081348,104.10732884932568
96183645,http://www.dianping.com/shop/96183645,重庆大队长火锅,火锅,http://qcloud.dpfile.com/pc/nwozKUPsQ_NouKD5Zu_Du1CLVb0RpoizHMQxR7O33NlxExsHnxy2lhRMVElMNRC552lfszCzH6kCpIe1c2_41Q.jpg,7.3,7.5,7.5,西林一街29号附33号驷马康城商业2楼,N/A,028-62608977,30.701398353339915,104.09360698916157
65951125,http://www.dianping.com/shop/65951125,胡涂印象老串串(驷马桥店),串串香,http://p0.meituan.net/shopmainpic/42c866e541ae5587a9ddb81b8dc3705d138673.jpg%40240w_180h_1e_1c_1l%7Cwatermark%3D1%26%26r%3D1%26p%3D9%26x%3D2%26y%3D2%26relative%3D1%26o%3D20,7.6,6.9,7.4,洪山路28号附一号(中营购物广场往里走川西坝子对面),58,028-61395187,30.707627629061996,104.0919223323956
70445746,http://www.dianping.com/shop/70445746,蛙塞美蛙鱼头火锅,自助餐,http://p1.meituan.net/deal/f2e0acb45186f49ad12828ab6881e246184992.jpg%40240w_180h_1e_1c_1l%7Cwatermark%3D1%26%26r%3D1%26p%3D9%26x%3D2%26y%3D2%26relative%3D1%26o%3D20,6.9,6.8,7,建设路第五大道美食广场二楼(烤匠斜对面),42,028-61111145,30.67182925538668,104.100250252469
10386409,http://www.dianping.com/shop/10386409,主心骨排骨连锅汤(龙潭寺店),火锅,http://p1.meituan.net/deal/a5d7bc372af4a7a6b90526e658554e7c30826.jpg%40240w_180h_1e_1c_1l%7Cwatermark%3D1%26%26r%3D1%26p%3D9%26x%3D2%26y%3D2%26relative%3D1%26o%3D20,7.3,6.9,6.9,龙港路20号附42,40,15102826768,30.700684648292825,104.16681681998956
96396284,http://www.dianping.com/shop/96396284,签与签特色私房串串店,火锅,https://img.meituan.net/msmerchant/132ae52b85b7c5d1057f9a9dd38445a82503633.jpg%40280w_212h_1e_1c_1l%7Cwatermark%3D0,7,7.2,7.4,双成三路15号附145,N/A,15882487973,30.647126036348993,104.11454116070294
91973061,http://www.dianping.com/shop/91973061,乐味鱼小火锅,火锅,http://p0.meituan.net/deal/79e2b2fe773039963e4ed4ae821513ed27488.jpg%40240w_180h_1e_1c_1l%7Cwatermark%3D1%26%26r%3D1%26p%3D9%26x%3D2%26y%3D2%26relative%3D1%26o%3D20,7.4,7.3,7.6,杉板桥四路329号115,N/A,15215149271,30.663224806142104,104.12559412943706
56973361,http://www.dianping.com/shop/56973361,老字号正宗简阳羊肉汤,火锅,http://p1.meituan.net/mogu/ee767215e071c57d55256eaa0b05205695853.jpg%40240w_180h_1e_1c_1l%7Cwatermark%3D1%26%26r%3D1%26p%3D9%26x%3D2%26y%3D2%26relative%3D1%26o%3D20,7.1,7.1,7.1,祥和里113-115号(祥和里底商),50,028-62491186,30.659861137441514,104.09421871274357
95335579,http://www.dianping.com/shop/95335579,让签签飞小郡肝串串香(八里店),串串香,http://qcloud.dpfile.com/pc/WtkiskpnFz3XT5Vbp7f6a2PBNqK9zX-M-i7G9Cbeetl_kQU1XxpLvyT7Ek61DQZ152lfszCzH6kCpIe1c2_41Q.jpg,7.7,7.7,7.5,八里小区新风路60号,N/A,N/A,30.68819526293353,104.10725365801738
8916735,http://www.dianping.com/shop/8916735,懒汉冷锅鱼(猛追湾南街店),火锅,http://p1.meituan.net/deal/a30243347f77f224650ba9ee6075a2cb553835.jpg%40240w_180h_1e_1c_1l%7Cwatermark%3D1%26%26r%3D1%26p%3D9%26x%3D2%26y%3D2%26relative%3D1%26o%3D20,7.3,6.8,7.1,猛追湾南街24号(近二号桥桥头),36,15828335113,30.663308813298844,104.0924581618517
7997994,http://www.dianping.com/shop/7997994,干锅鱼庄(万象城商场店),火锅,http://qcloud.dpfile.com/pc/_hX-ZTaVuuEbG76-rP_P0h7EvH_Vg-I-JpMC4XcSY32rppd5nAzZ7irlqFq5lAEq52lfszCzH6kCpIe1c2_41Q.jpg,7.1,7.1,7.2,双庆路8号华润万象城商场A区5层,29,028-61302480,30.652003732034025,104.1128959171974
93911153,http://www.dianping.com/shop/93911153,原半边桥雷记老妈蹄花,火锅,http://qcloud.dpfile.com/pc/KhrwZXapuV8-BR4QcwDkJQ3LIs_ngvYsLIkBDat_v_WIC3_Lu4-EVeO-cwJ48dAx52lfszCzH6kCpIe1c2_41Q.jpg,7.5,7.4,7.7,洪山路18号附1号(圣地亚家具旁),36,028-62618832,30.706386943080773,104.09432653294718
96097747,http://www.dianping.com/shop/96097747,简阳肖大仙羊肉汤,火锅,http://p0.meituan.net/mogu/ea56d8e0def420e8cd9eab50c71c8644138318.jpg%40240w_180h_1e_1c_1l%7Cwatermark%3D1%26%26r%3D1%26p%3D9%26x%3D2%26y%3D2%26relative%3D1%26o%3D20,7,6.9,6.9,跳蹬河北路169号(交建汽车驾驶学校隔壁),N/A,13408669097,30.66173854938529,104.11900382560593
96116183,http://www.dianping.com/shop/96116183,老街老火锅,火锅,http://qcloud.dpfile.com/pc/Atj_tWKiKM6HdFwU_JFUQ2QeM_DNCumE8zWsHU8PYT0e2PniMAJK4tejDqonl8XN52lfszCzH6kCpIe1c2_41Q.jpg,7.5,6.9,7.3,双林中横路8号11栋1单元1号(铜锅面对面),N/A,028-65232619,30.653383611174824,104.10463655956126
96644543,http://www.dianping.com/shop/96644543,眼镜兄弟五区后门小郡肝串串香(菽香里店),火锅,http://p1.meituan.net/mogu/41544f419774cb78c7f0bb710c4c222c50019.jpg%40240w_180h_1e_1c_1l%7Cwatermark%3D1%26%26r%3D1%26p%3D9%26x%3D2%26y%3D2%26relative%3D1%26o%3D20,7.6,7.5,7.6,建设路菽香里12号附7(菽香苑小区斜对面),N/A,18080021213,30.666093238143837,104.10210259709157
95358573,http://www.dianping.com/shop/95358573,徐妹串串香,串串香,http://qcloud.dpfile.com/pc/H7cvfi8JToE9dXkNWYi9VvelBvdmL5b3f0zIssJPIaa8QDOfHvr0HFPbgU8uhSeb52lfszCzH6kCpIe1c2_41Q.jpg,7.3,7.8,7.7,府青路二段2号财富又一城下沉广场A区B1层,N/A,13666137156,30.681331739400385,104.09263226319773
65611023,http://www.dianping.com/shop/65611023,油嘴滑舌串串香,串串香,http://p0.meituan.net/deal/3a7bea7c88a3422faa7adfbf90b06eaa50791.jpg%40240w_180h_1e_1c_1l%7Cwatermark%3D1%26%26r%3D1%26p%3D9%26x%3D2%26y%3D2%26relative%3D1%26o%3D20,8,7.6,7.5,圣灯路158号,50,18580942035,30.673812468460614,104.12132432432507
68176185,http://www.dianping.com/shop/68176185,蒲江肥肠芋儿鸡,火锅,http://p1.meituan.net/deal/8523797b0bd8e9f7d80b1bc61e8e0bd842131.jpg%40240w_180h_1e_1c_1l%7Cwatermark%3D1%26%26r%3D1%26p%3D9%26x%3D2%26y%3D2%26relative%3D1%26o%3D20,7.2,7.2,7.2,建中路13号和15号1楼,55,13808220660,30.671397515826552,104.11327324712427
6194241,http://www.dianping.com/shop/6194241,重庆好吃嘴冷锅鱼(双桥店),火锅,http://p1.meituan.net/deal/c3876e974002225a5ea734b75a461a6351801.jpg%40240w_180h_1e_1c_1l%7Cwatermark%3D1%26%26r%3D1%26p%3D9%26x%3D2%26y%3D2%26relative%3D1%26o%3D20,7.2,7.1,7.4,双桥路27号(近双桥子立交桥),38,13551670017,30.6504758287747,104.10884998681404
32575121,http://www.dianping.com/shop/32575121,食惠坊清汤黄牛肉,火锅,http://p0.meituan.net/apiback/69e1c0419a44f16186f34a424442bf8744675.jpg%40240w_180h_1e_1c_1l%7Cwatermark%3D1%26%26r%3D1%26p%3D9%26x%3D2%26y%3D2%26relative%3D1%26o%3D20,7.3,7,7.1,双林北支路222号(新华公园后门内),48,15928639531,30.659530242938413,104.10537844398893
528482,http://www.dianping.com/shop/528482,小张娃小郡肝串串香,串串香,http://qcloud.dpfile.com/pc/ccE2a-a9ZfP9bz7BKRkhLGL4TwVQuBPordhdbIuMfmxiOxsFwAwtY6ekKBRZXWeJ52lfszCzH6kCpIe1c2_41Q.jpg,7.7,6.5,7.1,建设路2号国光大厦2楼沙河桥头(原107厂小张娃串串香),49,028-84316788,30.673032196199173,104.10516977145396
23243337,http://www.dianping.com/shop/23243337,一纸馋海鲜牛排自助烤肉,烧烤,http://p0.meituan.net/deal/62d223a42f92c20c6b105aa8fb338999124902.jpg%40240w_180h_1e_1c_1l%7Cwatermark%3D1%26%26r%3D1%26p%3D9%26x%3D2%26y%3D2%26relative%3D1%26o%3D20,7,7,7.1,东三环成渝立交凯德广场斜对面万科魅力新天地2楼,52,028-84448220,30.62916145711323,104.15232125457408
13850223,http://www.dianping.com/shop/13850223,巴蜀麻麻鱼,火锅,http://qcloud.dpfile.com/pc/JApbU-4pAFfS8O_j5WUmuKOiHVVBYRug0pe6ometDFgz9bMNcq0hRfhjXHu0cVcy52lfszCzH6kCpIe1c2_41Q.jpg,7.8,7.2,7.6,双林北支路101号(新华公园北门斜对面),40,15108453742,30.659816977481466,104.1050313490299
8626415,http://www.dianping.com/shop/8626415,重庆老灶王老火锅(东郊记忆店),火锅,http://p0.meituan.net/deal/42603d7446bf51828a1363500de21d9492420.jpg%40240w_180h_1e_1c_1l%7Cwatermark%3D1%26%26r%3D1%26p%3D9%26x%3D2%26y%3D2%26relative%3D1%26o%3D20,7,6.7,6.5,圣灯路178号枫瑞苑商铺,78,028-84073087,30.67355671244947,104.1214514547385
19578426,http://www.dianping.com/shop/19578426,重庆老裹裹老火锅(双桥路店),火锅,http://p1.meituan.net/apiback/d6bd721f1f3ef9eb8973e0b117ee24fa45009.jpg%40240w_180h_1e_1c_1l%7Cwatermark%3D1%26%26r%3D1%26p%3D9%26x%3D2%26y%3D2%26relative%3D1%26o%3D20,7.6,7.1,7.4,双桥路16号(二环路与双桥路交口南光医院斜对面),83,028-85189730,30.649568459872473,104.10928320785547
27006687,http://www.dianping.com/shop/27006687,臻口福三汁焖锅(财富又一城店),火锅,http://p1.meituan.net/apiback/b125e73daf80320472b4efb6c8c973ff28801.jpg%40240w_180h_1e_1c_1l%7Cwatermark%3D1%26%26r%3D1%26p%3D9%26x%3D2%26y%3D2%26relative%3D1%26o%3D20,7.4,7.7,7.5,府青路二段2号财富又一城下沉广场B区B1层,64,028-84710660,30.680664972123555,104.09319808640046
23218271,http://www.dianping.com/shop/23218271,重庆江北老灶火锅(双庆店),火锅,http://qcloud.dpfile.com/pc/m8Dz-A2mnSzwSK0LpMykmdjpuZyoPwsvvXTbWE4AEd26yDO85r4c9iK1SxJXYVNn52lfszCzH6kCpIe1c2_41Q.jpg,7.5,7.6,7.4,双庆路与长天路交叉路口,67,028-84125266,30.65252574786644,104.12317409034463
92510609,http://www.dianping.com/shop/92510609,小龙坎老火锅(观城店),火锅,http://qcloud.dpfile.com/pc/smeU1fL2lmFn1hksL-iZqRxsUDj0zVozBlvXN-DJxrsoLz_lmsyLi2Jw3_LehKdU52lfszCzH6kCpIe1c2_41Q.jpg,7.1,7.1,7.2,双福三路203号,N/A,028-69868494,30.650740127685882,104.11880716740457
57003018,http://www.dianping.com/shop/57003018,牛大王清汤鲜黄牛肉,火锅,http://p0.meituan.net/deal/068fe42ca4f7b35fb010cd5e6d7bc8d789351.jpg%40240w_180h_1e_1c_1l%7Cwatermark%3D1%26%26r%3D1%26p%3D9%26x%3D2%26y%3D2%26relative%3D1%26o%3D20,7.4,7.1,7.2,建兴路14号附4号SM广场后面,43,18111596672,30.67408701400885,104.11421570810418
92635821,http://www.dianping.com/shop/92635821,八千里庄一串串,串串香,http://p0.meituan.net/mogu/14b11fb050c060bba98098d6593b506c45966.jpg%40240w_180h_1e_1c_1l%7Cwatermark%3D1%26%26r%3D1%26p%3D9%26x%3D2%26y%3D2%26relative%3D1%26o%3D20,7.5,8.1,7.9,八里小区新风路193号,54,13699026335,30.692204639462012,104.10437682578875
93374988,http://www.dianping.com/shop/93374988,签佰度串串火锅(欣城店),串串香,http://p1.meituan.net/mogu/5a0fe788573330f799074b962c97473e139337.jpg%40240w_180h_1e_1c_1l%7Cwatermark%3D1%26%26r%3D1%26p%3D9%26x%3D2%26y%3D2%26relative%3D1%26o%3D20,7.2,7.2,7.2,鹤林二路龙港路28号附34号时代欣城北门,N/A,18080023921,30.7035372643562,104.17051168542213
66733642,http://www.dianping.com/shop/66733642,重庆渝江北老灶火锅(驷马桥店),火锅,http://p0.meituan.net/deal/b302c003f28c95e4780e5e99688c967f74507.jpg%40240w_180h_1e_1c_1l%7Cwatermark%3D1%26%26r%3D1%26p%3D9%26x%3D2%26y%3D2%26relative%3D1%26o%3D20,7.3,7.3,7.2,洪山路28号附7号,78,028-83510638,30.70755462763633,104.09214424441723
97073100,http://www.dianping.com/shop/97073100,柠檬羊肉汤,火锅,http://qcloud.dpfile.com/pc/0Ou74W7hYMvf_DzHEq3sf5a3592uU94gaOjYKFtp4wg96l5LP3mYdGq0GKzemWoX52lfszCzH6kCpIe1c2_41Q.jpg,7.3,7.3,7.3,秀苑东路3号,N/A,13981837212,30.68210919506203,104.09662710685025
67141167,http://www.dianping.com/shop/67141167,九格子老火锅(成渝立交店),火锅,http://p0.meituan.net/ugcpic/a93c8ed58556c674a21b3c501eed2b46%40240w_180h_1e_1c_1l%7Cwatermark%3D1%26%26r%3D1%26p%3D9%26x%3D2%26y%3D2%26relative%3D1%26o%3D20,7.3,7.5,7.2,和韵路304号海上海(万科魅力之城附近),69,028-64264699,30.629416393360664,104.15694370888944
96316196,http://www.dianping.com/shop/96316196,牛叉跷脚牛肉(财富又一城店),火锅,http://qcloud.dpfile.com/pc/nA5zZ2QbBrlvnLQ3Ll6dB6G25s0DYxKdUw5PzXy9TAKQS8mZfO1Y_kfZdFknlLWo52lfszCzH6kCpIe1c2_41Q.jpg,6.9,7.4,7.4,财富又一城负一楼美食广场A区,N/A,028-87055822,30.681308863682922,104.09263800374617
91992319,http://www.dianping.com/shop/91992319,七婆串串香,火锅,http://p1.meituan.net/mogu/b22c0888a27cde26b6f8f52ac99961f5110759.png%40240w_180h_1e_1c_1l%7Cwatermark%3D1%26%26r%3D1%26p%3D9%26x%3D2%26y%3D2%26relative%3D1%26o%3D20,7.3,7.2,7.3,东丽街112号金科1城1号门,N/A,18780012798,30.712858504200927,104.10885010906067
74993558,http://www.dianping.com/shop/74993558,鼎味美蛙鱼头,火锅,http://p0.meituan.net/deal/9c383c127b5574fc9ddc97748a2887e136592.jpg%40240w_180h_1e_1c_1l%7Cwatermark%3D1%26%26r%3D1%26p%3D9%26x%3D2%26y%3D2%26relative%3D1%26o%3D20,7.3,7.2,7.1,杉板桥南四路321号,64,13568715533,30.66288975906594,104.12542596205681
90338543,http://www.dianping.com/shop/90338543,张氏老糊涂串串香(玉双路店),串串香,https://img.meituan.net/msmerchant/d37b9d782f8d1326524e5e6ea2d21e3643008.jpg%40280w_212h_1e_1c_1l%7Cwatermark%3D0,7.6,8,8,玉双路1号(玉双路地铁站任意出口玉双路方向前行100米即到),55,18908076051,30.657049340906063,104.09471833716215
67285223,http://www.dianping.com/shop/67285223,七掌柜自助火锅,自助餐,http://qcloud.dpfile.com/pc/5PlTpeeLjlxOaE_q8PlTx_6zd3BR33qldOUZsni7qMs-6nbDDJnfJwPyRaeIkFSN52lfszCzH6kCpIe1c2_41Q.jpg,7.3,7.4,7.4,青龙场云龙路龙城旁,N/A,N/A,30.702807190421655,104.1043192150986
90370072,http://www.dianping.com/shop/90370072,老铁原味老火锅,火锅,http://p1.meituan.net/deal/d32fc6bb2c67d9935fc6455801938f3555879.jpg%40240w_180h_1e_1c_1l%7Cwatermark%3D1%26%26r%3D1%26p%3D9%26x%3D2%26y%3D2%26relative%3D1%26o%3D20,7.4,7.7,8,双林北支路49号,49,18215561110,30.65969986251409,104.10694087383149
91855955,http://www.dianping.com/shop/91855955,彭仙祖,火锅,http://p0.meituan.net/xianfu/8d88cacf2bf00797b3a38885c3170b06107039.jpg%40240w_180h_1e_1c_1l%7Cwatermark%3D1%26%26r%3D1%26p%3D9%26x%3D2%26y%3D2%26relative%3D1%26o%3D20,7.2,7.2,7.5,小龙桥东巷30号附107,N/A,18190662950,30.66126087027404,104.11007601904292
66193341,http://www.dianping.com/shop/66193341,乐山牛华绿缘麻辣烫(万科魅力店),串串香,http://p1.meituan.net/dealwatera/9146a79f4c0d8205f36905d1843716f099653.jpg%40240w_180h_1e_1c_1l%7Cwatermark%3D1%26%26r%3D1%26p%3D9%26x%3D2%26y%3D2%26relative%3D1%26o%3D20,7.3,7.2,7.2,万科路19号,55,028-61539819,30.628003560211255,104.1526769396042
96134290,http://www.dianping.com/shop/96134290,巷子口火锅,火锅,http://qcloud.dpfile.com/pc/clDrZauCcS7HvY8ENhAn0kYJiSHlKjnnLQ6zKQXp2RCDgi1DHujpwIe4H8It60-A52lfszCzH6kCpIe1c2_41Q.jpg,7,7.2,7,天祥街57号附18号(紫薇名居隔壁),N/A,13668100626,30.65980402425355,104.08929681058021
41397669,http://www.dianping.com/shop/41397669,康巴拉牦牛馆(龙潭店),火锅,http://p0.meituan.net/deal/041b234c4a32c6ac84c41d52cae3577e82156.jpg%40240w_180h_1e_1c_1l%7Cwatermark%3D1%26%26r%3D1%26p%3D9%26x%3D2%26y%3D2%26relative%3D1%26o%3D20,7.5,7.1,7.3,成泰路6号,65,028-83275399,30.699100462233083,104.16419193184697
90953086,http://www.dianping.com/shop/90953086,后门小郡肝串串香(崔家店),火锅,http://p0.meituan.net/mogu/bf30956f4d88228bf062242735700dbe116748.jpg%40240w_180h_1e_1c_1l%7Cwatermark%3D1%26%26r%3D1%26p%3D9%26x%3D2%26y%3D2%26relative%3D1%26o%3D20,8.1,8.1,8.1,崔家店路257号,55,18782218980,30.66361343420238,104.12953467793814
60949084,http://www.dianping.com/shop/60949084,何老三冷锅串串(新鸿路店),串串香,http://p1.meituan.net/deal/4fd96d0b89214a8e1fb4e26f9e6ef732645524.jpg%40240w_180h_1e_1c_1l%7Cwatermark%3D1%26%26r%3D1%26p%3D9%26x%3D2%26y%3D2%26relative%3D1%26o%3D20,7.5,6.8,7.3,成都大道新鸿路366-368号,41,13084452426,30.664067409528517,104.10304779511445
94689514,http://www.dianping.com/shop/94689514,臻口福三汁焖锅,火锅,http://qcloud.dpfile.com/pc/Musbfoiu2N_YrJd6NOjncbqpwqCdkflO3ImP9G8Z-Gf9bCQDIiUoQBWVY93ElrLH52lfszCzH6kCpIe1c2_41Q.jpg,6.8,6.7,6.7,龙谭路上古天地星悦广场4楼,N/A,028-67676277,30.706577975837412,104.16314261589608
9969777,http://www.dianping.com/shop/9969777,满当当原炭烤鱼(凯德魅力店),川菜,http://p0.meituan.net/merchantpic/1344d7f492ec2438f50b9d5ae8b187f233432.jpg%40240w_180h_1e_1c_1l%7Cwatermark%3D1%26%26r%3D1%26p%3D9%26x%3D2%26y%3D2%26relative%3D1%26o%3D20,7.1,7.1,6.8,东三环万科路9号凯德广场4楼13号(成渝立交),66,028-83258318,30.62856734915997,104.15098592424067
90529083,http://www.dianping.com/shop/90529083,小龙坎原味火锅(凯德店),火锅,https://img.meituan.net/msmerchant/c309471018a9417b4c1a9e501868534e3672835.jpg%40280w_212h_1e_1c_1l%7Cwatermark%3D0,6.2,6.2,6.1,和美东路8号11栋,87,028-89895238,30.63207976918869,104.15204362949984
59398797,http://www.dianping.com/shop/59398797,川西自助火锅(新鸿路店),自助餐,http://p0.meituan.net/deal/1c72da60bcc052d7fd69e8a2d9127a3b50985.jpg%40240w_180h_1e_1c_1l%7Cwatermark%3D1%26%26r%3D1%26p%3D9%26x%3D2%26y%3D2%26relative%3D1%26o%3D20,7.2,7.2,7.4,成华大道新鸿路268号(一环路口军建烧伤科医院楼下),63,028-84329786,30.66419169615647,104.10053260626621
69073994,http://www.dianping.com/shop/69073994,七掌柜,火锅,http://p0.meituan.net/deal/c2a1938f2448aced2a8ec8c2b375d63a28480.jpg%40240w_180h_1e_1c_1l%7Cwatermark%3D1%26%26r%3D1%26p%3D9%26x%3D2%26y%3D2%26relative%3D1%26o%3D20,7.5,7.4,7.4,致顺路龙城Ⅱ期领都内底商,50,028-81145899,30.70176844694051,104.10620471232416
6450044,http://www.dianping.com/shop/6450044,鑫源碟串串香(建设南二路店),串串香,http://qcloud.dpfile.com/pc/c2adizYnwGLLI3g9FDsldc1KvTKMPWT5gA7NJ-GmzC712pBTnW8motLZ-AGRoOpD52lfszCzH6kCpIe1c2_41Q.jpg,7.5,6.9,7.4,建设南二路1号附59号,56,15002803337,30.66820374596301,104.10611623652527
96477376,http://www.dianping.com/shop/96477376,牛十三小郡肝串串香,火锅,http://qcloud.dpfile.com/pc/DJup1ef1utrVzWxNaIIV5eG41DSx2pjd01KT85GpLKAb9pQa5ST5unqHxetUwsg652lfszCzH6kCpIe1c2_41Q.jpg,7.2,7.3,7.4,双桥路69号北一街小区门面,N/A,13198582036,30.650800142275987,104.10782058023355
90499493,http://www.dianping.com/shop/90499493,上品羊肉汤,火锅,http://p0.meituan.net/mogu/dc19ae7f58c56085db9e143ac7c10d8f28716.jpg%40240w_180h_1e_1c_1l%7Cwatermark%3D1%26%26r%3D1%26p%3D9%26x%3D2%26y%3D2%26relative%3D1%26o%3D20,7.3,7.3,7.3,和锦路162号(上品粥店二楼),N/A,18980797967,30.630492307633652,104.15310759449423
91118763,http://www.dianping.com/shop/91118763,渝焱龍小郡肝砂锅串串香(望平街店),火锅,https://img.meituan.net/msmerchant/7248796c28f4aae9311de9cf87bce1db317447.jpg%40280w_212h_1e_1c_1l%7Cwatermark%3D0,7.4,7.5,7.7,望平街33号附8号,55,15928865658,30.656483944182778,104.08779984606778
83472018,http://www.dianping.com/shop/83472018,让签签飞后门小郡肝串串香(建设南路店),火锅,http://p1.meituan.net/mogu/4c26d0a071553676834de73940cb888387686.jpg%40240w_180h_1e_1c_1l%7Cwatermark%3D1%26%26r%3D1%26p%3D9%26x%3D2%26y%3D2%26relative%3D1%26o%3D20,7.5,7.3,7,建设南路144-148号(东郊记忆东大门),54,028-62524768,30.67336064825727,104.12227124374284
91904246,http://www.dianping.com/shop/91904246,双流老妈兔头▪羊肉汤(动物园店),火锅,http://p1.meituan.net/deal/f602738213bb228b6f6d27187846918f68722.jpg%40240w_180h_1e_1c_1l%7Cwatermark%3D1%26%26r%3D1%26p%3D9%26x%3D2%26y%3D2%26relative%3D1%26o%3D20,7.1,7.1,7.1,昭觉寺南路139号招商雍华府14号,N/A,13547746708,30.712723913786693,104.09839574752482
92574796,http://www.dianping.com/shop/92574796,旮旯串串火锅店,火锅,http://p0.meituan.net/mogu/c228724ccbc5bac3bae14c655b5289a9108605.jpg%40240w_180h_1e_1c_1l%7Cwatermark%3D1%26%26r%3D1%26p%3D9%26x%3D2%26y%3D2%26relative%3D1%26o%3D20,7.5,7.5,7.5,东篱路7号,57,028-62619652,30.658597886364674,104.1177249853086
96381416,http://www.dianping.com/shop/96381416,小龙坎老火锅,火锅,http://qcloud.dpfile.com/pc/ww5KxCO2RHSsKqdycQXtyZUPeEa-zG4K_K6bdf9vfosTo3poAL0bffK1fGJV5KvX52lfszCzH6kCpIe1c2_41Q.jpg,6.5,6.7,6.6,华林二路3号(华林小区A区底商，中国移动营业厅旁),N/A,028-83111582,30.684340350028307,104.13760062933397
77370315,http://www.dianping.com/shop/77370315,簽牛衛·四川麻辣牛肉串串(成渝立交店),火锅,http://p0.meituan.net/merchantpic/b6e38a2667de7f6da9932711f94ad0c454947.jpg%40240w_180h_1e_1c_1l%7Cwatermark%3D1%26%26r%3D1%26p%3D9%26x%3D2%26y%3D2%26relative%3D1%26o%3D20,7.3,7.6,7.8,和美东路178号海上海北苑商铺,62,028-83259699,30.630020591769135,104.15704074030877
97172937,http://www.dianping.com/shop/97172937,冻成狗羊肉汤,火锅,http://p1.meituan.net/xianfu/972f13f6d13104ae58f3e75a017dc056342898.jpg%40240w_180h_1e_1c_1l%7Cwatermark%3D1%26%26r%3D1%26p%3D9%26x%3D2%26y%3D2%26relative%3D1%26o%3D20,7.3,7,7.3,双成三路15号附77号,N/A,18981765286,30.64713191900081,104.11439206331032
10351917,http://www.dianping.com/shop/10351917,宽坝子花园火锅酒楼(建设店),火锅,http://p1.meituan.net/deal/__39335541__5843724.jpg%40240w_180h_1e_1c_1l%7Cwatermark%3D1%26%26r%3D1%26p%3D9%26x%3D2%26y%3D2%26relative%3D1%26o%3D20,7.8,8.4,7.7,建设北路三段168号,83,028-83520515,30.679996540483188,104.11446259528024
6194228,http://www.dianping.com/shop/6194228,山野鲜,火锅,http://p1.meituan.net/deal/__9608636__9113343.jpg%40240w_180h_1e_1c_1l%7Cwatermark%3D1%26%26r%3D1%26p%3D9%26x%3D2%26y%3D2%26relative%3D1%26o%3D20,7.1,7.1,7.1,二仙桥东路15号附66号罗兰小镇二楼(理工大学前门200米处，二仙桥加气站对面),48,028-66211336,30.677158177522557,104.13239469529358
74088354,http://www.dianping.com/shop/74088354,大锦门火锅(驷马桥店),火锅,http://p1.meituan.net/shopmainpic/1fb4025e43a3ba2674b6e3710f626c2a42474.png%40240w_180h_1e_1c_1l%7Cwatermark%3D1%26%26r%3D1%26p%3D9%26x%3D2%26y%3D2%26relative%3D1%26o%3D20,7.2,7.8,7.2,洪山北路99号附19号,54,028-83289800,30.70899087317371,104.09263198606908
91977823,http://www.dianping.com/shop/91977823,黑龙滩藤椒鱼,火锅,http://p1.meituan.net/deal/0ee0feccb26996287c456e6e271a7da541184.jpg%40240w_180h_1e_1c_1l%7Cwatermark%3D1%26%26r%3D1%26p%3D9%26x%3D2%26y%3D2%26relative%3D1%26o%3D20,7.6,7.4,7.4,华彩路21号,N/A,17323065668,30.69818765965025,104.17247692580335
6208901,http://www.dianping.com/shop/6208901,陈记69串串,串串香,http://qcloud.dpfile.com/pc/CmzjK1BrMHqALeBE-VY6SyhChQUw5nDTtB7-DUqbdQdej6SzjOLL4AHjAW34Zgqw52lfszCzH6kCpIe1c2_41Q.jpg,7.6,6.7,7.5,建设路54号69小区内(华联商厦对面),41,18683690118,30.670573369189007,104.09596776899406
22513842,http://www.dianping.com/shop/22513842,跷脚牛肉,火锅,http://p0.meituan.net/deal/d452c82f7db276d7d6bdde3a6a31d516489569.jpg%40240w_180h_1e_1c_1l%7Cwatermark%3D1%26%26r%3D1%26p%3D9%26x%3D2%26y%3D2%26relative%3D1%26o%3D20,7.3,7.3,7.4,成华大道新鸿路27—31号,30,13668225761,30.664884908279173,104.09472133610784
21370274,http://www.dianping.com/shop/21370274,棒棒娃老火锅,火锅,http://qcloud.dpfile.com/pc/H-8nFX2t_gOmdbvisGJmrY4Bmzw_48fY6xCee2nSe9I18GfWuFWv2rkwnBU1hi0j52lfszCzH6kCpIe1c2_41Q.jpg,7.6,6.5,6.9,建设南路1号,50,15885235569,30.671419417815457,104.11315117315546
94687619,http://www.dianping.com/shop/94687619,一鼎美蛙鱼头,火锅,http://qcloud.dpfile.com/pc/LCbnmkiTIkMW6LCIxkAnxuFJtet7ivgyMO_YFmeadmZFTj1zLblk4OmXGeqiqp1n52lfszCzH6kCpIe1c2_41Q.jpg,7.4,7.6,7.3,龙潭寺龙井路上古天地星悦广场4楼,67,15928579046,30.706926772972487,104.16312256232784
58742908,http://www.dianping.com/shop/58742908,重庆百宗杀牛场原味老火锅(万象店),火锅,http://p1.meituan.net/deal/d111fc47de0ba3bd013d47d97ae618e368116.jpg%40240w_180h_1e_1c_1l%7Cwatermark%3D1%26%26r%3D1%26p%3D9%26x%3D2%26y%3D2%26relative%3D1%26o%3D20,6.5,7,6.5,万年场街道双成二路华润·二十四城6期,81,028-62020298,30.64616677898814,104.11366264631187
93624765,http://www.dianping.com/shop/93624765,陶忆香火锅,火锅,https://img.meituan.net/msmerchant/f8ef8a5676658e79c684b6705fdc75813181580.jpg%40280w_212h_1e_1c_1l%7Cwatermark%3D0,7.2,7.2,7.3,双林路一环路东三段143号,50,13683478599,30.662162467606507,104.09992270163319
90425534,http://www.dianping.com/shop/90425534,蜀渝小龙坎老火锅(东荆店),火锅,http://p1.meituan.net/deal/ffbcfd164afbea7d9ff289d082e0e43244180.jpg%40240w_180h_1e_1c_1l%7Cwatermark%3D1%26%26r%3D1%26p%3D9%26x%3D2%26y%3D2%26relative%3D1%26o%3D20,7.4,7.6,8,东荆路804、806号,60,028-62612868,30.713947058943653,104.11169516469714
6529181,http://www.dianping.com/shop/6529181,小鱼村生态河鲜,火锅,http://p0.meituan.net/deal/f943501b2f0fa6486a1299751f66733b156466.jpg%40240w_180h_1e_1c_1l%7Cwatermark%3D1%26%26r%3D1%26p%3D9%26x%3D2%26y%3D2%26relative%3D1%26o%3D20,7.1,7,7.1,小龙桥路68号,54,18280361150,30.660843936747035,104.10809021522084
96047448,http://www.dianping.com/shop/96047448,顶尖高手小龙坎老火锅(望平街店),火锅,http://p1.meituan.net/mogu/4297d727050be27f207e8df5505fb73529518.jpg%40240w_180h_1e_1c_1l%7Cwatermark%3D1%26%26r%3D1%26p%3D9%26x%3D2%26y%3D2%26relative%3D1%26o%3D20,6.2,6.8,6.2,望平街1号,N/A,028-84446555,30.65557195155752,104.0874916247631
93712332,http://www.dianping.com/shop/93712332,蛙庄美蛙鱼头火锅,火锅,http://qcloud.dpfile.com/pc/saBIpTfD1lFSTZz7Ht36ld77DVP7kB2Irsduz_lTm5xxfOasxB0tol5BWceNMBJQ52lfszCzH6kCpIe1c2_41Q.jpg,7.3,7.4,7.4,荆翠南二街25号,N/A,028-64107671,30.717746459132062,104.0962307224549
8860319,http://www.dianping.com/shop/8860319,涂记串串香,串串香,http://qcloud.dpfile.com/pc/qVvb3JZP2nffVYlbX8c3GMPg0_ruVGspl0XtT7r61vPChLLd2xH9HfqaUw41LpAh52lfszCzH6kCpIe1c2_41Q.jpg,6.9,6.4,7.3,祥和里68号,36,15602410190,30.66037704423369,104.09284714920926
68051161,http://www.dianping.com/shop/68051161,喳闹鱼头(双建路店),火锅,http://qcloud.dpfile.com/pc/-Iwo4egaM10S3lDEEPxCtaZSA_3S5uc7eKHwmSEXqanzrC8Y-b3mDZCktYnLeqgc52lfszCzH6kCpIe1c2_41Q.jpg,7.3,6.8,7.5,8里小区双建路60号大院,N/A,13689062498,30.682601400689283,104.11173886070519
21399294,http://www.dianping.com/shop/21399294,壹号牛杂火锅,火锅,http://p0.meituan.net/deal/3a3db145c8dac268b5d43a952f36316578038.jpg%40240w_180h_1e_1c_1l%7Cwatermark%3D1%26%26r%3D1%26p%3D9%26x%3D2%26y%3D2%26relative%3D1%26o%3D20,7.3,7.1,7.4,积步街6号附16号,47,18081019909,30.655043093634603,104.11749991723512
92114792,http://www.dianping.com/shop/92114792,清汤缘石锅牦牛肉馆,火锅,http://p1.meituan.net/deal/31843ad854e9b13ee732dd6cd135713427331.jpg%40240w_180h_1e_1c_1l%7Cwatermark%3D1%26%26r%3D1%26p%3D9%26x%3D2%26y%3D2%26relative%3D1%26o%3D20,7.5,7.3,7.5,高车三路69号3栋2-3楼1号,N/A,15281329333,30.691980707385294,104.09735753260236
8692347,http://www.dianping.com/shop/8692347,廖记棒棒鸡(万科魅力之城店),火锅,http://qcloud.dpfile.com/pc/HwQ0Tt6oIGu24beTmI9ENzPGgZIQ75h78iOq4RjejocMyUnxe74hwCXsA8S86qdX52lfszCzH6kCpIe1c2_41Q.jpg,7.6,7.5,7.5,万科南路2号13栋1楼3号,22,4000285757,30.6314340072832,104.14974162220997
57987177,http://www.dianping.com/shop/57987177,刘记美蛙自助火锅,自助餐,http://p0.meituan.net/deal/175a8790ace1425bad6d729aff3a3f7785552.jpg%40240w_180h_1e_1c_1l%7Cwatermark%3D1%26%26r%3D1%26p%3D9%26x%3D2%26y%3D2%26relative%3D1%26o%3D20,7.2,6.9,6.9,香木林路1号附115号,46,18349266693,30.68135378600008,104.10806726090782
96170587,http://www.dianping.com/shop/96170587,唐大侠美蛙耗儿鱼,火锅,http://qcloud.dpfile.com/pc/zs6FKGidke9Xbz1ero8otKVep-D1kdTCsfrcu4LleF-BPpFkhyb3NSoryn05g3Jp52lfszCzH6kCpIe1c2_41Q.jpg,7,7,7,驷马桥洪山路36号,N/A,13540095119,30.708167526504244,104.09109467026042
97141509,http://www.dianping.com/shop/97141509,醉疯狂牛串串(双林路店),串串香,http://qcloud.dpfile.com/pc/QhNGyBnPk50SA5Ho78BGg0ZWQPOVyTFG433VAOhKNtrTtYaXFmiKBqJc_bNvyQAB52lfszCzH6kCpIe1c2_41Q.jpg,7.6,7.5,7.2,双林北横路109号,N/A,028-83513098,30.65555239696717,104.10839357325959
95069664,http://www.dianping.com/shop/95069664,巴山香重庆老火锅,火锅,https://img.meituan.net/msmerchant/92b98e798ac1372469bc0cd0a664634d324193.jpg%40280w_212h_1e_1c_1l%7Cwatermark%3D0,7.7,7.9,7.8,民兴路888号理工东苑大门囗右侧,76,028-85555710,30.684991021079956,104.15016984515448
67093515,http://www.dianping.com/shop/67093515,同一家稀溜耙,火锅,http://p1.meituan.net/xianfu/22d2930161ada434a39be33bfc2bf7b8207748.jpg%40240w_180h_1e_1c_1l%7Cwatermark%3D1%26%26r%3D1%26p%3D9%26x%3D2%26y%3D2%26relative%3D1%26o%3D20,6.8,6.7,6.6,双桥路南一街58号,40,13708078409,30.650163798758715,104.10855088241574
74502525,http://www.dianping.com/shop/74502525,正宗简阳王麻子羊肉汤,火锅,http://p0.meituan.net/deal/23411816f91c1b2546b2d295f2e0302d37042.jpg%40240w_180h_1e_1c_1l%7Cwatermark%3D1%26%26r%3D1%26p%3D9%26x%3D2%26y%3D2%26relative%3D1%26o%3D20,7,7,7,驷马桥华润万家对面,35,13402846838,30.71727248038025,104.1017262042173
23480911,http://www.dianping.com/shop/23480911,人民食堂,火锅,http://qcloud.dpfile.com/pc/pHDQLq6etunFaoIDszVaK7FZiXOmOEXbKkEZSfTx5qw9umVb1JMGHSHLe193sXzl52lfszCzH6kCpIe1c2_41Q.jpg,7.3,7.3,7.5,新鸿南路25号,45,N/A,30.660859052466115,104.10376505094719
8008465,http://www.dianping.com/shop/8008465,川江滋香老火锅(荆竹店),火锅,http://p0.meituan.net/ugcpic/7573cb2f7270fca2421c3bf13f49b54d%40240w_180h_1e_1c_1l%7Cwatermark%3D1%26%26r%3D1%26p%3D9%26x%3D2%26y%3D2%26relative%3D1%26o%3D20,7.5,7.6,7.4,荆翠南二路23号凤翔华庭(凤翔小区旁),64,028-62310583,30.717131768605423,104.09616557765278
23971432,http://www.dianping.com/shop/23971432,重庆叮叮冷锅鱼,火锅,http://p1.meituan.net/deal/b7e1d39e3df044d21aea93104e311b20176721.jpg%40240w_180h_1e_1c_1l%7Cwatermark%3D1%26%26r%3D1%26p%3D9%26x%3D2%26y%3D2%26relative%3D1%26o%3D20,6.8,6.8,6.7,二环路东二段建兴路69号(SM广场背后),41,028-69910169,30.672838512935265,104.11129507852071
19148827,http://www.dianping.com/shop/19148827,袁记串串香(猛追湾店),串串香,http://p0.meituan.net/mogu/3599b6daaea5e7df3e97beed907d2f5456824.jpg%40240w_180h_1e_1c_1l%7Cwatermark%3D1%26%26r%3D1%26p%3D9%26x%3D2%26y%3D2%26relative%3D1%26o%3D20,7.1,7.4,7.4,猛追湾南街21号(电视塔正对门),40,028-84374098,30.663517707275084,104.09255911310879
48328931,http://www.dianping.com/shop/48328931,冷锅鱼,火锅,http://p0.meituan.net/xianfu/3b416856316df67a24dcba02ff63e5aa136253.jpg%40240w_180h_1e_1c_1l%7Cwatermark%3D1%26%26r%3D1%26p%3D9%26x%3D2%26y%3D2%26relative%3D1%26o%3D20,6.9,6.9,6.9,建设西街2号(路),N/A,18628164925,30.6689722764745,104.10793478360124
95994108,http://www.dianping.com/shop/95994108,壹妙70原味香串串,火锅,https://img.meituan.net/msmerchant/d0be1782250d8bf31ec486c7f8c5f73a1845339.jpg%40280w_212h_1e_1c_1l%7Cwatermark%3D0,7.5,7.2,7.6,二仙桥南一路3号附14-16号,56,13881780632,30.68232743000628,104.11565829717517
67312520,http://www.dianping.com/shop/67312520,新韩1洞韩国年糕火锅料理,韩国料理,http://qcloud.dpfile.com/pc/bjIxB3JZu-GfAzRlfcIwMd58511GAbpnexOV5Z436QSQd22qEMF4Kdq-DNk074jd52lfszCzH6kCpIe1c2_41Q.jpg,6.1,6.8,6.4,凯德广场4楼,63,N/A,30.629000024775372,104.1503287545425
93617720,http://www.dianping.com/shop/93617720,憨叁砂锅串串(二十四城店),串串香,http://qcloud.dpfile.com/pc/ie4MmrxAznhEOXxAKic3ixDXag_oSFYYdmCDVqUG3amsTYWHGUub3VUw6ah9MG_152lfszCzH6kCpIe1c2_41Q.jpg,7.1,7.2,7,双成二路,N/A,028-64656146,30.646294831676204,104.11380672975395
68080379,http://www.dianping.com/shop/68080379,重庆南山老火锅,火锅,http://p0.meituan.net/deal/c8da6ea65d11f3ad445b57da0d102d20359222.png%40240w_180h_1e_1c_1l%7Cwatermark%3D1%26%26r%3D1%26p%3D9%26x%3D2%26y%3D2%26relative%3D1%26o%3D20,7.4,7.5,7.6,万年辖区建材路22号(隆兴九熙广场),67,028-83277260,30.64783617340607,104.13741002160981
96322651,http://www.dianping.com/shop/96322651,鸿一锅鲜兔耗儿鱼,火锅,http://qcloud.dpfile.com/pc/e89ed9BlyAnoaLtKr6Un3Gb4dTWyjQpRZ2YKEpk4TBmDgi1DHujpwIe4H8It60-A52lfszCzH6kCpIe1c2_41Q.jpg,7.6,7.5,7.7,成宏路27号附6号7号,N/A,13980023263,30.696404568304413,104.17528099073913
65926874,http://www.dianping.com/shop/65926874,重庆鸡公煲,火锅,http://p1.meituan.net/xianfu/5005139b5425bbf0bc6facaf3177137038912.jpg%40240w_180h_1e_1c_1l%7Cwatermark%3D1%26%26r%3D1%26p%3D9%26x%3D2%26y%3D2%26relative%3D1%26o%3D20,7.3,7,7.2,成华大道三段理工东苑,24,13378313200,30.683933524850136,104.1504895322703
79455950,http://www.dianping.com/shop/79455950,雄赳赳麻辣烫串串(财富又一城店),火锅,http://p1.meituan.net/mogu/61b3071606fd469f70bf2d89ed241730266034.jpg%40240w_180h_1e_1c_1l%7Cwatermark%3D1%26%26r%3D1%26p%3D9%26x%3D2%26y%3D2%26relative%3D1%26o%3D20,7.5,7.6,7.6,府青路二段2号财富又一城商场负一楼的第10铺面(驿亭客栈楼下),52,028-83205611,30.681178692675008,104.09365790593534
95885450,http://www.dianping.com/shop/95885450,中华羊馆羊肉汤,火锅,http://qcloud.dpfile.com/pc/6rqcdC8iIV52BzVlSXGz_Dz1Mim5NEoZ0w34sZrxpswikEni-fuyAaWSlxWlmmXg52lfszCzH6kCpIe1c2_41Q.jpg,7,7.2,7.3,洪山北路99号,N/A,15181943482,30.7089969074526,104.092370087383
91909516,http://www.dianping.com/shop/91909516,最味.概念火锅(永立星城都店),火锅,http://p1.meituan.net/mogu/da53c6c0d6bf1ce12f6e32644c8bfa37188192.jpg%40240w_180h_1e_1c_1l%7Cwatermark%3D1%26%26r%3D1%26p%3D9%26x%3D2%26y%3D2%26relative%3D1%26o%3D20,6.9,7.2,7.3,高车三路69号永立星城都2栋二楼(在可可仓超市楼上，靠近红色中国结景观处),N/A,028-83258206,30.692288551429773,104.09715754819008
95979022,http://www.dianping.com/shop/95979022,豪一哥老官美蛙鱼头,火锅,http://qcloud.dpfile.com/pc/UvLBZAZDThw8Dxq7wei72pfYz_MMM3_pZ9-GRgtO8y2AbJwRhTXw_RewgCzq1Ugy52lfszCzH6kCpIe1c2_41Q.jpg,6.8,6.8,6.3,成华大道三段富临理宫10栋3楼(世纪华联旁),N/A,028-84719967,30.683067778346516,104.13882650859495
95380139,http://www.dianping.com/shop/95380139,熊霸串串小郡肝串串香,串串香,https://img.meituan.net/msmerchant/cb1be97259ceb6367c31f4ab984e70991039340.jpg%40280w_212h_1e_1c_1l%7Cwatermark%3D0,7.2,7.2,7.2,成康路40号附2,N/A,13618072164,30.69872675586951,104.17276014952088
67253474,http://www.dianping.com/shop/67253474,重庆小堂倌老火锅,火锅,http://p1.meituan.net/deal/1a64e6f89421c06d2dba094e7c7aee1f91266.jpg%40240w_180h_1e_1c_1l%7Cwatermark%3D1%26%26r%3D1%26p%3D9%26x%3D2%26y%3D2%26relative%3D1%26o%3D20,7.7,7.7,7.8,桃源街115号,49,028-69292274,30.68707118691586,104.10987973957403
45429796,http://www.dianping.com/shop/45429796,鼎味美蛙鱼头(龙潭店),火锅,http://p1.meituan.net/mogu/9fdcc452e7a68dd21c786f2e2186c602323397.jpg%40240w_180h_1e_1c_1l%7Cwatermark%3D1%26%26r%3D1%26p%3D9%26x%3D2%26y%3D2%26relative%3D1%26o%3D20,7.2,7.1,7.2,成康路40号附17号,56,13438076347,30.69860010852387,104.17398145394924
93384828,http://www.dianping.com/shop/93384828,牛旺老火锅,火锅,https://img.meituan.net/msmerchant/b9478ee683c0de91bf94caa3f7183e3a1906561.jpg%40280w_212h_1e_1c_1l%7Cwatermark%3D0,8.1,8.3,8.6,玉双路3号附29号,76,18783861861,30.657943014588287,104.09367597197158
5352362,http://www.dianping.com/shop/5352362,吴铭火锅(龙潭店),火锅,http://p1.meituan.net/deal/__49255899__6679350.jpg%40240w_180h_1e_1c_1l%7Cwatermark%3D1%26%26r%3D1%26p%3D9%26x%3D2%26y%3D2%26relative%3D1%26o%3D20,7,7,6.9,龙潭寺西路66号3栋1单元2楼1号(隆兴广场),66,028-84200668,30.705768312697224,104.16418661915341
72356800,http://www.dianping.com/shop/72356800,狂犇牛杂火锅,火锅,http://p0.meituan.net/deal/d5073b88404c13a2e87930d4c0e5eb3525515.jpg%40240w_180h_1e_1c_1l%7Cwatermark%3D1%26%26r%3D1%26p%3D9%26x%3D2%26y%3D2%26relative%3D1%26o%3D20,6.8,6.8,7,和悦路114号,40,17760376275,30.65771926401267,104.14584179308856
96195813,http://www.dianping.com/shop/96195813,牛骨仙汤,火锅,http://qcloud.dpfile.com/pc/iSqHVdMNmXrAr_PJVLvUmTF9vVw_xZ29_QgERoJtvI2gyRN0TVJ3isxCoRdI3HU352lfszCzH6kCpIe1c2_41Q.jpg,7.7,7.7,7.7,猛追湾街189号附6号(隆江猪脚饭隔壁),N/A,15528360613,30.665337713419106,104.09462034331995
5959108,http://www.dianping.com/shop/5959108,重庆老味坝坝火锅(驷马桥店),火锅,http://qcloud.dpfile.com/pc/GJAG1eWRbOT5UXZSLNWgXiArSQxqcZFOsmFXHJO_gGcfe4ESXuS__HTizXbvb3P852lfszCzH6kCpIe1c2_41Q.jpg,7.2,7.1,7.1,西林二街蓝光富丽锦城后面,46,13678135095,30.699907973475575,104.09662128601043
6010142,http://www.dianping.com/shop/6010142,三江鱼火锅,火锅,http://qcloud.dpfile.com/pc/21w_5r7kaGB8f44TsJnQzguwlRTCufGS9ngfCx_UlJos4z_FydFkzPHSBbYH_zu-52lfszCzH6kCpIe1c2_41Q.jpg,7.3,7,7.2,积步街9-11号(万象城),47,028-68158964,30.655267940073735,104.11743585711355
10379773,http://www.dianping.com/shop/10379773,豆汤饭,火锅,http://p0.meituan.net/deal/52d64370efdb1fce643c5a7bcd88d71036412.jpg%40240w_180h_1e_1c_1l%7Cwatermark%3D1%26%26r%3D1%26p%3D9%26x%3D2%26y%3D2%26relative%3D1%26o%3D20,7.7,7.7,7.7,新怡路30号附11浅水半岛(B区),20,18780225243,30.688905356695123,104.10343670444138
21239651,http://www.dianping.com/shop/21239651,牛蛙鲜兔自助火锅,自助餐,http://p1.meituan.net/dpdeal/6b5b7624896ef0f3b0d2ea53c47218a678000.jpg%40240w_180h_1e_1c_1l%7Cwatermark%3D1%26%26r%3D1%26p%3D9%26x%3D2%26y%3D2%26relative%3D1%26o%3D20,7.1,7.1,7.1,西林四街56号(沙河新居大门口),38,18011583250,30.701068140255494,104.10151193908344
8039338,http://www.dianping.com/shop/8039338,王朝花椒鱼(总店),火锅,http://p0.meituan.net/xianfu/51429b12c90a6bb7ddd1a29ef0b6321749152.jpg%40240w_180h_1e_1c_1l%7Cwatermark%3D1%26%26r%3D1%26p%3D9%26x%3D2%26y%3D2%26relative%3D1%26o%3D20,7.4,7.2,6.8,昭觉南路438号(近上东生活广场),63,13608228208,30.717869271096486,104.1020221994399
18327474,http://www.dianping.com/shop/18327474,泸州酸菜豆花炒菜特色火锅,火锅,http://p1.meituan.net/deal/b0ae27285fadf71bc8a0331e6057b6d030904.jpg%40240w_180h_1e_1c_1l%7Cwatermark%3D1%26%26r%3D1%26p%3D9%26x%3D2%26y%3D2%26relative%3D1%26o%3D20,6.5,6.7,6.5,较场坝东街99号(较场坝东苑9幢底商),23,13308069103,30.651384903088832,104.08850964833287
69768633,http://www.dianping.com/shop/69768633,巴蜀吃皮,火锅,http://p0.meituan.net/deal/92cb6dfff1f1af3431f84664e09dde4b1488201.png%40240w_180h_1e_1c_1l%7Cwatermark%3D1%26%26r%3D1%26p%3D9%26x%3D2%26y%3D2%26relative%3D1%26o%3D20,7.3,7.2,7.1,建设南新路美印厂宿舍内,72,15928672940,30.668835056615535,104.10221748103072
92738509,http://www.dianping.com/shop/92738509,屋头串串香(海纳时代店),串串香,https://img.meituan.net/msmerchant/737744bea32aa3856d61eb278a383994183278.jpg%40280w_212h_1e_1c_1l%7Cwatermark%3D0,7.6,7.7,7.5,致兴三路27-29号(领地海纳时代商铺),46,13880147257,30.703496461460485,104.11546218424402
66260445,http://www.dianping.com/shop/66260445,吉隆斑鱼庄,火锅,http://p0.meituan.net/deal/011bfb3fe5e85d1d6c2ba2de751e347a52125.jpg%40240w_180h_1e_1c_1l%7Cwatermark%3D1%26%26r%3D1%26p%3D9%26x%3D2%26y%3D2%26relative%3D1%26o%3D20,7.4,7.3,7.4,和锦路280号(万科凯德广场，蓝光锦绣城),70,15102807385,30.630914682268344,104.15341512534381
92678476,http://www.dianping.com/shop/92678476,小鲜锋海鲜辣卤,火锅,http://qcloud.dpfile.com/pc/_nVj1p4g3QrmvX1HjlRreEtkOkke3cBWex7tGgGLVDNQrkDYcjhmt0p6K-CN4GKZ52lfszCzH6kCpIe1c2_41Q.jpg,6.8,6.7,6.8,水碾河路25号蜀都惠园1栋1层5号,N/A,13308229219,30.65041980018988,104.10111525657695
93391790,http://www.dianping.com/shop/93391790,牛德幅火锅,火锅,https://img.meituan.net/msmerchant/a36dc88ad26de9d1ab62c31ffcd039bc852375.jpg%40280w_212h_1e_1c_1l%7Cwatermark%3D0,5.7,6,6,双福二路39号二层,81,028-62491363,30.64746587738948,104.11577898778083
93247497,http://www.dianping.com/shop/93247497,整点秘制串串,串串香,http://qcloud.dpfile.com/pc/HhY0qQ2Qr-0WttMZxO1EpgO034PlQcEAIfdpuX7kQgt2F-VzCNjLfY5u7XyqSX7S52lfszCzH6kCpIe1c2_41Q.jpg,7.6,7.4,7.9,建设巷1号,32,18681278989,30.673809374073553,104.10027016107344
73392142,http://www.dianping.com/shop/73392142,蜀锦香小龙坎,火锅,https://img.meituan.net/msmerchant/153ab8f07e534a3bb6fb74fd311cfc10663339.jpg%40280w_212h_1e_1c_1l%7Cwatermark%3D0,8.2,8.2,8,双建路81号,68,028-83246858,30.682295985317843,104.11239523434818
74584432,http://www.dianping.com/shop/74584432,巴蜀渔哥重庆冷锅鱼,火锅,http://p1.meituan.net/deal/cb0d1a2551ab95a9e963f74037b9b07a39325.jpg%40240w_180h_1e_1c_1l%7Cwatermark%3D1%26%26r%3D1%26p%3D9%26x%3D2%26y%3D2%26relative%3D1%26o%3D20,7,6.7,6.9,万科路19号附59,46,13550308618,30.62900887253609,104.15252061573447
90415060,http://www.dianping.com/shop/90415060,姚记小龙坎老火锅(羊子山西路店),火锅,http://p1.meituan.net/mogu/23dd3e32218ea8adaa7731539e7e9c4630801.jpg%40240w_180h_1e_1c_1l%7Cwatermark%3D1%26%26r%3D1%26p%3D9%26x%3D2%26y%3D2%26relative%3D1%26o%3D20,7.2,7.5,7.3,羊子山西路8号二楼,57,028-80580839,30.708972672910367,104.09560207728018
69458094,http://www.dianping.com/shop/69458094,百味记小郡肝砂罐串串(华润店),串串香,http://p0.meituan.net/shopmainpic/311944c9695a4dfd66d94b3d1f1feefb42030.jpg%40240w_180h_1e_1c_1l%7Cwatermark%3D1%26%26r%3D1%26p%3D9%26x%3D2%26y%3D2%26relative%3D1%26o%3D20,7.2,7.7,7.9,双成3路15号附180号,43,028-84111228,30.646562593996464,104.11363961389067
90376903,http://www.dianping.com/shop/90376903,唐小二,火锅,http://p0.meituan.net/mogu/f722a96b668a989cde49c04fa06df36d231335.jpg%40240w_180h_1e_1c_1l%7Cwatermark%3D1%26%26r%3D1%26p%3D9%26x%3D2%26y%3D2%26relative%3D1%26o%3D20,7.7,7.6,8.1,建设路第五大道(网事风云斜对面电梯旁),42,13436294712,30.671642275030155,104.0999132644659
68118913,http://www.dianping.com/shop/68118913,麻辣空间自助火锅,火锅,http://qcloud.dpfile.com/pc/woxhofnygiZ94PkE4x_iGCGDUojJewg3uBg0gJ-JIrJbABLJ-NMpmWgYt00SYGDo52lfszCzH6kCpIe1c2_41Q.jpg,7.2,7.2,7.2,建设路26号第五大道美食广场内,35,18008046442,30.671551233038436,104.09943228308948
69085023,http://www.dianping.com/shop/69085023,小郡肝砂锅串串,串串香,http://qcloud.dpfile.com/pc/VkLTdZsCa8Qse2r3hw_zNxMBparqliL6XL88m5rWjZmRAh5gxGlq1-r7UrEVVqFx52lfszCzH6kCpIe1c2_41Q.jpg,7.6,7.6,7.8,龙潭寺成康路40号附2号,52,028-64272918,30.698244733233135,104.17422592929928
65389846,http://www.dianping.com/shop/65389846,空签签火锅串串(双桥总店),火锅,http://p1.meituan.net/mogu/14498cd48912a9242ab3bc8b4e918e70119808.jpg%40240w_180h_1e_1c_1l%7Cwatermark%3D1%26%26r%3D1%26p%3D9%26x%3D2%26y%3D2%26relative%3D1%26o%3D20,7.3,6.8,7.1,双桥路17号,64,028-84111599,30.64999852431615,104.10971237396674
79217185,http://www.dianping.com/shop/79217185,娇小妹油炸串串,火锅,http://p0.meituan.net/deal/29f84f9c8d7f6f619d5f8757c3e0f6b091952.jpg%40240w_180h_1e_1c_1l%7Cwatermark%3D1%26%26r%3D1%26p%3D9%26x%3D2%26y%3D2%26relative%3D1%26o%3D20,7.4,6.9,7.6,新风巷1号附16号,35,13688015650,30.69032520913986,104.10713152231173
97515260,http://www.dianping.com/shop/97515260,隔壁老王老火锅,火锅,http://qcloud.dpfile.com/pc/BQp27yQq_4KVJmOh5of3qfmrVOL_GAUXxIa8Xna_6xioBpvEu9aQ9gbfcYNTCabA52lfszCzH6kCpIe1c2_41Q.jpg,7.2,7.6,7.8,双桥路100号(红旗超市隔壁),N/A,13568842123,30.651235250877942,104.10635708719467
93354594,http://www.dianping.com/shop/93354594,签万回火锅串串,火锅,https://img.meituan.net/msmerchant/c1a953c7e290c27ca397fdf7fdd9462c4636076.jpg%40280w_212h_1e_1c_1l%7Cwatermark%3D0,7.6,7.7,7.8,二仙桥中国铁建广场理工东苑华林三路3号附108号,50,13881794523,30.683649452035002,104.14008839721247
8949675,http://www.dianping.com/shop/8949675,乐活时尚麻辣香锅(sm广场店),火锅,http://p0.meituan.net/xianfu/71944fb72f3e1dac0b8c1dcda5edf96647104.jpg%40240w_180h_1e_1c_1l%7Cwatermark%3D1%26%26r%3D1%26p%3D9%26x%3D2%26y%3D2%26relative%3D1%26o%3D20,6.4,6.8,6.8,二环路东二段29号sm广场4层,48,13882008277,30.6707641473103,104.10916918290776
92974636,http://www.dianping.com/shop/92974636,蜀久味自助火锅,自助餐,http://p1.meituan.net/mogu/6536c1013dacdd79cd06eb053dd28e04152609.jpg%40240w_180h_1e_1c_1l%7Cwatermark%3D1%26%26r%3D1%26p%3D9%26x%3D2%26y%3D2%26relative%3D1%26o%3D20,6.9,7.1,7.1,洪山北路99号,43,13540019998,30.708482202008323,104.09204924036689
83486571,http://www.dianping.com/shop/83486571,六品汤锅,火锅,http://qcloud.dpfile.com/pc/LQuL40ETxuxetTjOdQcVthH1yhg-kRpeUUchJ2EqbFUtE_y1EsxihMqxH_vb7UNP52lfszCzH6kCpIe1c2_41Q.jpg,7.2,7,7.7,荆竹中路华润熙悦广场(蜀大侠楼下),45,028-84431040,30.7152334442634,104.10165729375503
82682624,http://www.dianping.com/shop/82682624,来一锅重庆老火锅,火锅,http://p0.meituan.net/deal/b5f6dcc274bca2feeca03f270dc1f54e222205.jpg%40240w_180h_1e_1c_1l%7Cwatermark%3D1%26%26r%3D1%26p%3D9%26x%3D2%26y%3D2%26relative%3D1%26o%3D20,8.2,7.7,8.5,双林中横路8号双林社区新2栋,53,18729497973,30.654496287042925,104.10503559530505
82688455,http://www.dianping.com/shop/82688455,上心鱼火锅,火锅,http://p0.meituan.net/mogu/d1e081bbb95f62fcef68a5139bc8d8e9259501.png%40240w_180h_1e_1c_1l%7Cwatermark%3D1%26%26r%3D1%26p%3D9%26x%3D2%26y%3D2%26relative%3D1%26o%3D20,7.8,8.2,8,东区音乐公园(建设南路93号),42,028-84375858,30.67223102384086,104.12016834714132
96722066,http://www.dianping.com/shop/96722066,醉疯狂牛串串(驷马桥店),串串香,http://p1.meituan.net/mogu/35ab342fd0b8e5359447b003c31a5e9d25490.jpg%40240w_180h_1e_1c_1l%7Cwatermark%3D1%26%26r%3D1%26p%3D9%26x%3D2%26y%3D2%26relative%3D1%26o%3D20,6.7,7.2,6.3,双荆路6号(招商雍华府南门旁),N/A,17703972218,30.712238373939442,104.0922809729762
93556954,http://www.dianping.com/shop/93556954,熊记九桌重庆火锅,火锅,http://qcloud.dpfile.com/pc/A4HioVHLHC0DG4BvsgSOO_TxmY1dPo5_nCVw7XNYIy-MJZYrLhxg9hJCgiMMDCU052lfszCzH6kCpIe1c2_41Q.jpg,7.6,7.4,7.7,建兴路15号附37号,N/A,028-83510485,30.673778204982458,104.11428476669572
90099272,http://www.dianping.com/shop/90099272,重庆3号自助老火锅(东郊记忆店),自助餐,http://p1.meituan.net/deal/2bb524f4cfde61c6e6b5a6defb241939103539.jpg%40240w_180h_1e_1c_1l%7Cwatermark%3D1%26%26r%3D1%26p%3D9%26x%3D2%26y%3D2%26relative%3D1%26o%3D20,6.6,6.7,6.7,圣灯路108号,59,18081778677,30.675079468069082,104.12089587076798
